~VERSION INFORMATION
VERS.           2.0   :CWLS Log ASCII Standard - VERSION 2.0
WRAP.           NO    :One Line per depth step
PROD.  Schlumberger   :LAS Producer
PROG.  DLIS to ASCII 11C0-305                          :LAS Program name and version
CREA.        2004/05/20 01:33                          :LAS Creation date {YYYY/MM/DD hh:mm}
SOURCE.     AIT_TLD_MCFL_CNL_019PUP.DLIS               :DLIS File Name
FILE-ID.     AIT_TLD_MCFL_CNL_019PUP                   :File Identification Number
#--------------------------------------------------
~WELL INFORMATION
#MNEM.UNIT      DATA             DESCRIPTION
#---- ------ --------------   -----------------------------
STRT .F         5768.0       :START DEPTH     
STOP .F         4226.5       :STOP DEPTH     
STEP .F           -0.5       :STEP     
NULL .          -999.25      :NULL VALUE
COMP .        DEPARTMENT OF ENERGY                     :COMPANY
WELL .        48X - 28                                 :WELL
FLD  .        NAVAL PETROLEUM RESERVE # 3              :FIELD
LOC  .        490' FSL, 2449' FWL                      :LOCATION
CNTY .        NATRONA                                  :COUNTY
STAT .        WYOMING                                  :STATE
CTRY .                                                 :COUNTRY
API  .        49-025-23195                             :API NUMBER
UWI  .                                                 :UNIQUE WELL ID
DATE .        19-May-2004                              :LOG DATE {DD-MMM-YYYY}
SRVC .        Schlumberger                             :SERVICE COMPANY
LATI .DEG                                              :LATITUDE
LONG .DEG                                              :LONGITUDE
GDAT .                                                 :GeoDetic Datum
SECT .        28                                       :Section
RANG .        78W                                      :Range
TOWN .        39N                                      :Township
#-----------------------------------------------------------------------------
~PARAMETER INFORMATION
#MNEM.UNIT    VALUE                      DESCRIPTION
#---- -----   --------------------       ------------------------
RUN  .          1                        :RUN NUMBER
PDAT .        GROUND LEVEL               :Permanent Datum
EPD  .C3                                 :Elevation of Permanent Datum above Mean Sea Level
EPD  .C3                                 :Elevation of tool zero above Mean Sea Level
LMF  .          KELLY BUSHING            :Logging Measured From (Name of Logging Elevation Reference)
APD  .                                   :Elevation of Depth Reference (LMF) above Permanent Datum
#-----------------------------------------------------------------------------
~CURVE INFORMATION
#MNEM.UNIT   API CODE                                  DESCRIPTION
#---- -----  --------                                  -----------------------
DEPT .F                                                :DEPTH (BOREHOLE) {F10.1}
BS   .IN                                               :Bit Size {F13.4}
DPHZ .CFCF                                             :HRDD Standard Resolution Density Porosity {F13.4}
FCD  .IN                                               :Future Casing Diameter {F13.4}
GR   .GAPI                                             :Gamma-Ray {F13.4}
HCAL .IN                                               :HRCC Cal. Caliper {F13.4}
HDRA .G/C3                                             :HRDD Density Correction {F13.4}
ICV  .F3                                               :Integrated Cement Volume {F13.4}
NPOR .CFCF                                             :Enhanced Thermal Neutron Porosity {F13.4}
PEFZ .                                                 :HRDD Standard Resolution Formation Photoelectric Factor {F13.4}
RHOZ .G/C3                                             :HRDD Standard Resolution Formation Density {F13.4}
RLA1 .OHMM                                             :HRLT Borehole Corrected Resistivity 1 {F13.4}
RLA2 .OHMM                                             :HRLT Borehole Corrected Resistivity 2 {F13.4}
RLA3 .OHMM                                             :HRLT Borehole Corrected Resistivity 3 {F13.4}
RLA4 .OHMM                                             :HRLT Borehole Corrected Resistivity 4 {F13.4}
RLA5 .OHMM                                             :HRLT Borehole Corrected Resistivity 5 {F13.4}
RXOZ .OHMM                                             :MCFL Standard Resolution Invaded Zone Resistivity {F13.4}
SP   .MV                                               :Spontaneous Potential {F13.4}
#-----------------------------------------------------------------------------
# 
#     DEPT        BS           DPHZ         FCD          GR           HCAL         HDRA         ICV          NPOR         PEFZ         RHOZ         RLA1         RLA2         RLA3         RLA4         RLA5         RXOZ         SP
#
~A  
# ...
    5155.5       6.1250      -0.0446       5.0000      91.5169       8.5635      -0.0010      61.0891       0.1257       3.3598       2.7236      22.5511      22.8537      23.6858      23.1578      25.3279      25.6861      93.4375
    5155.0       6.1250      -0.0541       5.0000      94.7779       8.5188       0.0026      61.2188       0.1254       3.2645       2.7393      19.4095      19.2156      20.6520      20.7537      22.2844      22.2587      92.5625
    5154.5       6.1250      -0.0529       5.0000     101.4997       8.4630       0.0019      61.3460       0.1396       3.2707       2.7373      15.6366      15.1920      16.2644      16.7793      18.0281      19.3285      92.8125
    5154.0       6.1250      -0.0444       5.0000     105.8959       8.4295      -0.0016      61.4716       0.1429       3.3412       2.7232      15.9090      15.3715      16.5063      17.0248      18.2993      18.0827      92.3125
    5153.5       6.1250      -0.0381       5.0000     112.4380       8.4071      -0.0034      61.5961       0.1604       3.4214       2.7128      16.3234      15.9643      16.9546      17.5861      18.8485      16.0977      92.4375
    5153.0       6.1250      -0.0319       5.0000     126.2024       8.3625      -0.0040      61.7187       0.1765       3.4969       2.7026      14.9892      14.9040      15.5912      16.4601      17.7841      13.1512      92.4375
    5152.5       6.1250      -0.0287       5.0000     126.6035       8.2955      -0.0033      61.8381       0.1904       3.5418       2.6973      12.6784      12.6867      13.2296      13.7343      14.9473      11.4299      91.4375
    5152.0       6.1250      -0.0251       5.0000     124.3538       8.2620      -0.0039      61.9561       0.2243       3.5882       2.6914      11.4968      11.4299      11.7463      11.8692      13.4212      11.1621      91.6250
    5151.5       6.1250      -0.0271       5.0000     117.6809       8.2508      -0.0034      62.0736       0.2206       3.6038       2.6947      11.3030      11.1790      11.3115      11.4520      13.2159      10.6798      90.6250
    5151.0       6.1250      -0.0357       5.0000     117.7568       8.1949      -0.0010      62.1885       0.2207       3.5393       2.7089      10.4851      10.2831      10.4049      10.5922      12.3351      10.6673      91.1250
    5150.5       6.1250      -0.0396       5.0000     118.5464       8.1614       0.0005      62.3020       0.2483       3.4415       2.7153      10.0069       9.9118       9.9819      10.2155      12.0275      11.3643      91.1250
    5150.0       6.1250      -0.0427       5.0000     113.0705       8.1168       0.0028      62.4135       0.1946       3.3418       2.7204      10.4021      10.3623      10.4786      10.7500      12.7442      13.1933      91.4375
    5149.5       6.1250      -0.0405       5.0000     107.1545       8.0944       0.0034      62.5240       0.1640       3.2929       2.7168      12.7969      12.8553      13.3134      13.5590      16.3189      13.6795      91.6875
    5149.0       6.1250      -0.0460       5.0000     107.1545       8.0609       0.0069      62.6330       0.1697       3.2981       2.7259      14.3511      14.4443      15.1866      15.4473      18.7137      15.0630      92.0000
    5148.5       6.1250      -0.0516       5.0000     105.9994       8.0274       0.0119      62.7405       0.1602       3.3501       2.7351      14.0929      14.5580      15.0471      15.3310      18.7201      15.9224      91.7500
    5148.0       6.1250      -0.0508       5.0000     107.5842       7.9827       0.0113      62.8461       0.1574       3.4219       2.7338      16.1356      16.5713      17.2716      17.6743      21.8671      19.2753      91.7500
    5147.5       6.1250      -0.0443       5.0000     103.8298       7.9604       0.0083      62.9508       0.1708       3.4741       2.7230      17.2895      17.2865      18.0971      18.5993      23.4341      16.9214      92.0000
    5147.0       6.1250      -0.0364       5.0000     107.8838       7.9045       0.0019      63.0530       0.1724       3.4773       2.7101      14.5057      14.1791      14.5570      14.9018      18.8096      13.6643      92.1250
    5146.5       6.1250      -0.0367       5.0000     104.8389       7.8934       0.0016      63.1547       0.2042       3.4644       2.7106      12.1814      11.7228      11.9393      12.1198      15.2269      13.1588      92.7500
    5146.0       6.1250      -0.0491       5.0000     108.2805       7.8710       0.0097      63.2555       0.1898       3.4477       2.7310      13.5395      13.0715      12.6169      13.4465      16.6837      14.4354      93.2500
    5145.5       6.1250      -0.0610       5.0000     107.5205       7.8487       0.0155      63.3553       0.1603       3.4790       2.7506      15.7491      15.1524      15.1137      15.3739      19.1426      15.8113      93.9375
    5145.0       6.1250      -0.0736       5.0000     106.2775       7.8040       0.0237      63.4532       0.1430       3.5201       2.7714      17.2577      16.7605      16.7464      17.0007      20.9749      18.4897      94.4375
    5144.5       6.1250      -0.0735       5.0000     102.6274       7.8040       0.0288      63.5511       0.1325       3.5520       2.7713      18.2103      18.2975      17.8553      17.6576      21.7250      20.3272      94.1875
    5144.0       6.1250      -0.0683       5.0000     102.9104       7.7817       0.0437      63.6481       0.1384       3.5731       2.7627      19.1346      19.0906      19.1554      18.7540      22.9958      25.0184      93.7500
    5143.5       6.1250      -0.0652       5.0000     102.6934       7.7593       0.0620      63.7441       0.1300       3.5685       2.7577      21.1977      21.0295      21.3195      21.1058      25.7141      13.5533      93.6875
    5143.0       6.1250      -0.0503       5.0000      99.9050       7.7593       0.0598      63.8401       0.1310       3.5001       2.7330      22.7876      22.3871      22.7451      22.3184      26.8197      13.7949      93.8750
    5142.5       6.1250      -0.0347       5.0000      95.2418       7.7370       0.0362      63.9351       0.1282       3.3979       2.7072      24.7258      23.9474      24.0532      23.9985      28.4418      16.2125      94.1250
    5142.0       6.1250      -0.0295       5.0000     103.7963       7.7370       0.0083      64.0302       0.1360       3.3005       2.6987      24.1682      23.4632      23.3607      23.1586      27.0082      32.7797      94.3750
    5141.5       6.1250      -0.0363       5.0000     107.2104       7.7258      -0.0050      64.1248       0.1443       3.2979       2.7099      22.8138      21.7801      21.7657      21.7176      25.0443      28.5278      93.6875
    5141.0       6.1250      -0.0431       5.0000     107.3427       7.7147      -0.0054      64.2189       0.1441       3.3368       2.7211      21.3346      20.2375      20.0901      20.0702      22.7696      26.5125      93.7500
    5140.5       6.1250      -0.0352       5.0000     101.7083       7.6923      -0.0071      64.3121       0.1426       3.3944       2.7081      21.3701      20.3485      19.9702      19.7764      22.3109      25.6055      93.1875
    5140.0       6.1250      -0.0278       5.0000     100.4049       7.7147      -0.0081      64.4062       0.1259       3.4270       2.6959      24.0224      22.8026      22.6353      22.3831      24.8936      27.6126      93.6875
    5139.5       6.1250      -0.0348       5.0000      97.1440       7.6923      -0.0043      64.4994       0.1124       3.3917       2.7075      25.5956      24.3787      24.1839      23.7147      25.8614      32.2698      94.0625
    5139.0       6.1250      -0.0427       5.0000      93.2828       7.6923      -0.0015      64.5926       0.1125       3.3634       2.7205      28.5986      27.8385      27.5441      26.6803      28.6521      35.0331      94.7500
    5138.5       6.1250      -0.0473       5.0000      90.6233       7.7035      -0.0005      64.6863       0.1185       3.3502       2.7280      30.3462      29.5960      29.9342      28.5792      30.2457      44.8224      94.8125
