~VERSION INFORMATION
VERS.           2.0   :CWLS Log ASCII Standard - VERSION 2.0
WRAP.           NO    :One Line per depth step
PROD.  Schlumberger   :LAS Producer
PROG.  DLIS to ASCII 11C0-305                          :LAS Program name and version
CREA.        2004/05/20 01:33                          :LAS Creation date {YYYY/MM/DD hh:mm}
SOURCE.     AIT_TLD_MCFL_CNL_019PUP.DLIS               :DLIS File Name
FILE-ID.     AIT_TLD_MCFL_CNL_019PUP                   :File Identification Number
#--------------------------------------------------
~WELL INFORMATION
#MNEM.UNIT      DATA             DESCRIPTION
#---- ------ --------------   -----------------------------
STRT .F         5768.0       :START DEPTH     
STOP .F         4226.5       :STOP DEPTH     
STEP .F           -0.5       :STEP     
NULL .          -999.25      :NULL VALUE
COMP .        DEPARTMENT OF ENERGY                     :COMPANY
WELL .        48X - 28                                 :WELL
FLD  .        NAVAL PETROLEUM RESERVE # 3              :FIELD
LOC  .        490' FSL, 2449' FWL                      :LOCATION
CNTY .        NATRONA                                  :COUNTY
STAT .        WYOMING                                  :STATE
CTRY .                                                 :COUNTRY
API  .        49-025-23195                             :API NUMBER
UWI  .                                                 :UNIQUE WELL ID
DATE .        19-May-2004                              :LOG DATE {DD-MMM-YYYY}
SRVC .        Schlumberger                             :SERVICE COMPANY
LATI .DEG                                              :LATITUDE
LONG .DEG                                              :LONGITUDE
GDAT .                                                 :GeoDetic Datum
SECT .        28                                       :Section
RANG .        78W                                      :Range
TOWN .        39N                                      :Township
#-----------------------------------------------------------------------------
~PARAMETER INFORMATION
#MNEM.UNIT    VALUE                      DESCRIPTION
#---- -----   --------------------       ------------------------
RUN  .          1                        :RUN NUMBER
PDAT .        GROUND LEVEL               :Permanent Datum
EPD  .C3                                 :Elevation of Permanent Datum above Mean Sea Level
EPD  .C3                                 :Elevation of tool zero above Mean Sea Level
LMF  .          KELLY BUSHING            :Logging Measured From (Name of Logging Elevation Reference)
APD  .                                   :Elevation of Depth Reference (LMF) above Permanent Datum
#-----------------------------------------------------------------------------
~CURVE INFORMATION
#MNEM.UNIT   API CODE                                  DESCRIPTION
#---- -----  --------                                  -----------------------
DEPT .F                                                :DEPTH (BOREHOLE) {F10.1}
BS   .IN                                               :Bit Size {F13.4}
DPHZ .CFCF                                             :HRDD Standard Resolution Density Porosity {F13.4}
FCD  .IN                                               :Future Casing Diameter {F13.4}
GR   .GAPI                                             :Gamma-Ray {F13.4}
HCAL .IN                                               :HRCC Cal. Caliper {F13.4}
HDRA .G/C3                                             :HRDD Density Correction {F13.4}
ICV  .F3                                               :Integrated Cement Volume {F13.4}
NPOR .CFCF                                             :Enhanced Thermal Neutron Porosity {F13.4}
PEFZ .                                                 :HRDD Standard Resolution Formation Photoelectric Factor {F13.4}
RHOZ .G/C3                                             :HRDD Standard Resolution Formation Density {F13.4}
RLA1 .OHMM                                             :HRLT Borehole Corrected Resistivity 1 {F13.4}
RLA2 .OHMM                                             :HRLT Borehole Corrected Resistivity 2 {F13.4}
RLA3 .OHMM                                             :HRLT Borehole Corrected Resistivity 3 {F13.4}
RLA4 .OHMM                                             :HRLT Borehole Corrected Resistivity 4 {F13.4}
RLA5 .OHMM                                             :HRLT Borehole Corrected Resistivity 5 {F13.4}
RXOZ .OHMM                                             :MCFL Standard Resolution Invaded Zone Resistivity {F13.4}
SP   .MV                                               :Spontaneous Potential {F13.4}
#-----------------------------------------------------------------------------
# 
#     DEPT        BS           DPHZ         FCD          GR           HCAL         HDRA         ICV          NPOR         PEFZ         RHOZ         RLA1         RLA2         RLA3         RLA4         RLA5         RXOZ         SP
#
~A  
# ...
    5558.0       6.1250       0.0938       5.0000      28.1224       6.1510      -0.0007      12.6504       0.1013       2.1880       2.4953       8.8932      11.5884      14.5812      17.6981      25.1401       6.7529     149.6875
    5557.5       6.1250       0.0957       5.0000      27.0238       6.1510      -0.0020      12.6854       0.1062       2.2039       2.4921       9.3375      12.2885      15.3018      18.5074      26.8676       6.8562     149.6875
    5557.0       6.1250       0.0956       5.0000      32.4820       6.1287      -0.0014      12.7196       0.1085       2.2140       2.4922       9.6888      12.7605      16.3298      19.4617      28.7438       6.7341     149.4375
    5556.5       6.1250       0.1037       5.0000      32.8628       6.1287      -0.0026      12.7539       0.1126       2.2513       2.4790       9.0441      11.8066      15.1122      17.9604      26.7850       6.4931     150.0625
    5556.0       6.1250       0.1073       5.0000      34.1700       6.1287      -0.0025      12.7881       0.1066       2.2494       2.4730       8.8295      11.7100      15.0309      18.1922      27.2562       6.0347     150.8125
    5555.5       6.1250       0.1107       5.0000      30.3898       6.1287      -0.0029      12.8224       0.1131       2.2280       2.4674       7.4929       9.9918      13.2361      15.8047      23.8296       5.5161     151.4375
    5555.0       6.1250       0.1113       5.0000      27.9232       6.1287      -0.0021      12.8566       0.1108       2.1849       2.4663       7.2825       9.5418      12.9061      15.3150      23.4938       5.5892     151.1875
    5554.5       6.1250       0.1116       5.0000      23.9603       6.1287       0.0001      12.8909       0.1009       2.1429       2.4658       7.8499      10.5677      14.2068      16.9613      26.5146       5.1668     150.7500
    5554.0       6.1250       0.1156       5.0000      22.5295       6.1287       0.0019      12.9251       0.1244       2.1157       2.4592       6.9559       9.5941      12.5413      15.5206      23.8348       4.7819     150.9375
    5553.5       6.1250       0.1132       5.0000      22.8521       6.1287       0.0047      12.9594       0.1328       2.0929       2.4632       6.0533       8.4129      10.9327      13.5613      20.7429       4.3686     150.6250
    5553.0       6.1250       0.1154       5.0000      25.3550       6.1287       0.0039      12.9936       0.1072       2.0927       2.4596       6.0345       8.3645      10.9386      13.5793      20.6136       4.5675     151.0000
    5552.5       6.1250       0.1141       5.0000      23.4745       6.1287       0.0036      13.0279       0.1239       2.1119       2.4617       6.4346       8.7992      11.6872      14.5426      21.7732       4.2463     151.4375
    5552.0       6.1250       0.1175       5.0000      25.1519       6.1287       0.0019      13.0621       0.1351       2.1353       2.4561       6.5684       8.8407      12.1719      15.0375      22.2247       4.1996     151.5625
    5551.5       6.1250       0.1141       5.0000      24.3176       6.1287      -0.0008      13.0964       0.1243       2.1613       2.4618       5.5657       7.8248      10.6430      12.9902      18.9369       4.4543     152.1875
    5551.0       6.1250       0.1130       5.0000      26.4366       6.1175      -0.0011      13.1303       0.1115       2.1527       2.4636       6.4108       9.2296      12.7117      15.6886      22.8128       5.1345     151.9375
    5550.5       6.1250       0.1116       5.0000      23.5681       6.1063      -0.0007      13.1638       0.1065       2.1386       2.4658       7.2476      10.2927      14.3644      17.6818      25.8603       5.3928     152.3125
    5550.0       6.1250       0.1165       5.0000      22.7338       6.1287       0.0015      13.1980       0.1320       2.1235       2.4577       7.1824      10.2385      13.7860      16.9925      24.7330       5.1119     152.0000
    5549.5       6.1250       0.1140       5.0000      21.5415       6.1287       0.0025      13.2323       0.1215       2.1203       2.4619       6.7010       9.3627      12.5208      15.3260      22.4872       4.9810     151.5000
    5549.0       6.1250       0.1120       5.0000      22.2013       6.1287       0.0020      13.2665       0.0993       2.1146       2.4652       6.4807       8.7636      11.5383      14.1872      20.9519       5.0046     151.5000
    5548.5       6.1250       0.1082       5.0000      23.7743       6.1287       0.0015      13.3008       0.1043       2.1205       2.4715       6.8604       8.9774      11.7815      14.6063      21.6588       5.2667     151.1875
    5548.0       6.1250       0.1120       5.0000      24.9334       6.1287      -0.0018      13.3350       0.0971       2.1483       2.4651       7.1949       9.2084      12.0175      14.8480      22.0407       5.8745     150.8750
    5547.5       6.1250       0.1174       5.0000      27.3806       6.1287      -0.0047      13.3693       0.0987       2.1868       2.4563       7.5872       9.7229      12.1813      15.2404      22.7101       5.8682     150.8750
    5547.0       6.1250       0.1162       5.0000      26.6419       6.1063      -0.0051      13.4028       0.1016       2.1877       2.4583       9.0357      11.9479      15.0887      18.9327      28.5952       6.3115     150.8750
    5546.5       6.1250       0.1101       5.0000      27.6290       6.1287      -0.0039      13.4370       0.0998       2.1599       2.4683       8.0623      10.5484      13.8094      16.8463      25.3749       6.2346     150.8750
    5546.0       6.1250       0.1021       5.0000      26.2247       6.1175      -0.0016      13.4709       0.0967       2.1322       2.4815       9.5242      12.6890      16.7692      20.1787      30.6913       7.0033     150.1250
    5545.5       6.1250       0.0973       5.0000      27.9163       6.1287       0.0005      13.5052       0.0978       2.0987       2.4894       9.5405      12.7906      16.9753      20.3450      30.4876       6.5953     149.5625
    5545.0       6.1250       0.0967       5.0000      26.9292       6.1175      -0.0002      13.5391       0.1007       2.0880       2.4904       9.0880      12.2498      16.0214      19.2639      28.5421       6.0420     149.0625
    5544.5       6.1250       0.0959       5.0000      26.9026       6.1287       0.0031      13.5733       0.1083       2.0795       2.4917       8.0504      10.8647      13.9694      16.6659      24.3745       5.6566     149.7500
    5544.0       6.1250       0.1001       5.0000      25.8368       6.1063       0.0041      13.6068       0.1037       2.0906       2.4848       8.4702      11.4554      14.6540      17.3690      25.1827       5.2874     149.9375
    5543.5       6.1250       0.1039       5.0000      26.1085       6.1287       0.0073      13.6411       0.1062       2.1003       2.4785       7.5204       9.7891      12.4954      14.4935      20.7126       5.1231     149.7500
    5543.0       6.1250       0.1080       5.0000      27.3865       6.1175       0.0052      13.6749       0.1232       2.0857       2.4718       7.2469       9.6085      12.1327      13.9170      19.6786       5.1563     149.6875
    5542.5       6.1250       0.1081       5.0000      26.3436       6.1063       0.0038      13.7085       0.1186       2.0765       2.4717       7.1847       9.7855      12.1569      14.1801      19.6718       5.5719     149.2500
    5542.0       6.1250       0.1026       5.0000      26.0960       6.1063       0.0042      13.7420       0.1101       2.0831       2.4808       8.1446      11.1868      14.2147      16.7175      22.9663       5.9466     149.2500
    5541.5       6.1250       0.1016       5.0000      26.7217       6.1063       0.0039      13.7755       0.1140       2.0834       2.4824       8.0767      10.8745      14.2308      16.7293      22.5037       5.8366     149.1875
    5541.0       6.1250       0.1057       5.0000      26.2182       6.1063       0.0032      13.8090       0.1134       2.0813       2.4756       7.5396      10.0964      13.1291      15.4744      20.4763       5.3862     148.3750
