~VERSION INFORMATION
VERS.           2.0   :CWLS Log ASCII Standard - VERSION 2.0
WRAP.           NO    :One Line per depth step
PROD.  Schlumberger   :LAS Producer
PROG.  DLIS to ASCII 11C0-305                          :LAS Program name and version
CREA.        2004/05/20 01:33                          :LAS Creation date {YYYY/MM/DD hh:mm}
SOURCE.     AIT_TLD_MCFL_CNL_019PUP.DLIS               :DLIS File Name
FILE-ID.     AIT_TLD_MCFL_CNL_019PUP                   :File Identification Number
#--------------------------------------------------
~WELL INFORMATION
#MNEM.UNIT      DATA             DESCRIPTION
#---- ------ --------------   -----------------------------
STRT .F         5768.0       :START DEPTH     
STOP .F         4226.5       :STOP DEPTH     
STEP .F           -0.5       :STEP     
NULL .          -999.25      :NULL VALUE
COMP .        DEPARTMENT OF ENERGY                     :COMPANY
WELL .        48X - 28                                 :WELL
FLD  .        NAVAL PETROLEUM RESERVE # 3              :FIELD
LOC  .        490' FSL, 2449' FWL                      :LOCATION
CNTY .        NATRONA                                  :COUNTY
STAT .        WYOMING                                  :STATE
CTRY .                                                 :COUNTRY
API  .        49-025-23195                             :API NUMBER
UWI  .                                                 :UNIQUE WELL ID
DATE .        19-May-2004                              :LOG DATE {DD-MMM-YYYY}
SRVC .        Schlumberger                             :SERVICE COMPANY
LATI .DEG                                              :LATITUDE
LONG .DEG                                              :LONGITUDE
GDAT .                                                 :GeoDetic Datum
SECT .        28                                       :Section
RANG .        78W                                      :Range
TOWN .        39N                                      :Township
#-----------------------------------------------------------------------------
~PARAMETER INFORMATION
#MNEM.UNIT    VALUE                      DESCRIPTION
#---- -----   --------------------       ------------------------
RUN  .          1                        :RUN NUMBER
PDAT .        GROUND LEVEL               :Permanent Datum
EPD  .C3                                 :Elevation of Permanent Datum above Mean Sea Level
EPD  .C3                                 :Elevation of tool zero above Mean Sea Level
LMF  .          KELLY BUSHING            :Logging Measured From (Name of Logging Elevation Reference)
APD  .                                   :Elevation of Depth Reference (LMF) above Permanent Datum
#-----------------------------------------------------------------------------
~CURVE INFORMATION
#MNEM.UNIT   API CODE                                  DESCRIPTION
#---- -----  --------                                  -----------------------
DEPT .F                                                :DEPTH (BOREHOLE) {F10.1}
BS   .IN                                               :Bit Size {F13.4}
DPHZ .CFCF                                             :HRDD Standard Resolution Density Porosity {F13.4}
FCD  .IN                                               :Future Casing Diameter {F13.4}
GR   .GAPI                                             :Gamma-Ray {F13.4}
HCAL .IN                                               :HRCC Cal. Caliper {F13.4}
HDRA .G/C3                                             :HRDD Density Correction {F13.4}
ICV  .F3                                               :Integrated Cement Volume {F13.4}
NPOR .CFCF                                             :Enhanced Thermal Neutron Porosity {F13.4}
PEFZ .                                                 :HRDD Standard Resolution Formation Photoelectric Factor {F13.4}
RHOZ .G/C3                                             :HRDD Standard Resolution Formation Density {F13.4}
RLA1 .OHMM                                             :HRLT Borehole Corrected Resistivity 1 {F13.4}
RLA2 .OHMM                                             :HRLT Borehole Corrected Resistivity 2 {F13.4}
RLA3 .OHMM                                             :HRLT Borehole Corrected Resistivity 3 {F13.4}
RLA4 .OHMM                                             :HRLT Borehole Corrected Resistivity 4 {F13.4}
RLA5 .OHMM                                             :HRLT Borehole Corrected Resistivity 5 {F13.4}
RXOZ .OHMM                                             :MCFL Standard Resolution Invaded Zone Resistivity {F13.4}
SP   .MV                                               :Spontaneous Potential {F13.4}
#-----------------------------------------------------------------------------
# 
#     DEPT        BS           DPHZ         FCD          GR           HCAL         HDRA         ICV          NPOR         PEFZ         RHOZ         RLA1         RLA2         RLA3         RLA4         RLA5         RXOZ         SP
#
~A  
    5768.0       6.1250     607.2121       5.0000      15.0880       2.9343    -999.2500       0.0000       0.2521    -999.2500    -999.2500      36.2824      43.7071      46.5942      45.2962      45.6308       1.0621     152.9375
    5767.5       6.1250     607.2121       5.0000      15.0880       2.9343    -999.2500       0.0000       0.2521    -999.2500    -999.2500      36.2824      43.7071      46.5942      45.2962      45.6308       1.0601     152.9375
    5767.0       6.1250     607.2121       5.0000      15.0880       2.9343    -999.2500       0.0000       0.2521    -999.2500    -999.2500      36.2824      43.7071      46.5942      45.2962      45.6308       1.0568     152.3750
    5766.5       6.1250     607.2121       5.0000      15.0880       2.9343    -999.2500       0.0000       0.2521    -999.2500    -999.2500      36.2824      43.7071      46.5942      45.2962      45.6308       1.0568     153.3750
    5766.0       6.1250     607.2121       5.0000      15.0880       2.9343    -999.2500       0.0000       0.2521    -999.2500    -999.2500      36.2824      43.7071      46.5942      45.2962      45.6308       1.0568     154.6875
    5765.5       6.1250     607.2121       5.0000      15.0880       2.9343    -999.2500       0.0000       0.2521    -999.2500    -999.2500      36.2824      43.7071      46.5942      45.2962      45.6308       1.0568     154.7500
    5765.0       6.1250     607.2121       5.0000      15.0880       2.9343    -999.2500       0.0000       0.2521    -999.2500    -999.2500      36.2824      43.7071      46.5942      45.2962      45.6308       1.0568     153.0625
    5764.5       6.1250     607.2121       5.0000      15.0880       2.9343    -999.2500       0.0000       0.2521    -999.2500    -999.2500      36.2824      43.7071      46.5942      45.2962      45.6308       1.0568     155.9375
    5764.0       6.1250     607.2121       5.0000      15.0880       2.9343    -999.2500       0.0000       0.2521    -999.2500    -999.2500      36.2824      43.7071      46.5942      45.2962      45.6308       1.0568     156.1250
    5763.5       6.1250     607.2121       5.0000      15.0880       2.9343    -999.2500       0.0000       0.2521    -999.2500    -999.2500      36.2824      43.7071      46.5942      45.2962      45.6308       1.0568     156.5000
    5763.0       6.1250     607.2121       5.0000      15.0880       2.9343       2.3291       0.0000       0.2521       2.5684       2.3980      36.2824      43.7071      46.5942      45.2962      45.6308       1.0568     159.3750
    5762.5       6.1250       0.1522       5.0000      15.0880       2.9343       1.8164       0.0000       0.2521       2.5503       2.3989      36.2824      43.7071      46.5942      45.2962      45.6308       1.0568     155.8125
    5762.0       6.1250       0.1517       5.0000      15.0880       2.9343       1.0466       0.0000       0.2521       2.5467       2.3997      36.2824      43.7071      46.5942      45.2962      45.6308       1.0568     155.9375
    5761.5       6.1250       0.1516       5.0000      15.0880       2.9343       0.2762       0.0000       0.2521       2.5474       2.3998      36.2824      43.7071      46.5942      45.2962      45.6308       1.0568     156.0000
    5761.0       6.1250       0.1516       5.0000      15.0880       2.9343       0.2761       0.0000       0.2521       2.5480       2.3998      36.2824      43.7071      46.5942      45.2962      45.6308       1.0568     156.1250
    5760.5       6.1250       0.1516       5.0000      15.0880       2.9343       0.2761       0.0000       0.2521       2.5488       2.3998      36.2824      43.7071      46.5942      45.2962      45.6308       1.0568     156.6250
    5760.0       6.1250       0.1516       5.0000      15.0880       2.9343       0.2761       0.0000       0.2521       2.5497       2.3998      36.2824      43.7071      46.5942      45.2962      45.6308       1.0568     156.7500
    5759.5       6.1250       0.1516       5.0000      15.0880       2.9343       0.2761       0.0000       0.2521       2.5507       2.3998      36.2824      43.7071      46.5942      45.2962      45.6308       1.0568     157.0625
    5759.0       6.1250       0.1516       5.0000      15.0880       2.9343       0.2761       0.0000       0.2521       2.5517       2.3998      36.2824      43.7071      46.5942      45.2962      45.6308       1.0568     158.3750
    5758.5       6.1250       0.1516       5.0000      15.0880       2.9343       0.2761       0.0000       0.2521       2.5526       2.3998      36.2824      43.7071      46.5942      45.2962      45.6308       1.0568     157.8125
    5758.0       6.1250       0.1517       5.0000      15.0880       2.9343       0.2761      -0.0447       0.2521       2.5536       2.3998      36.2824      43.7071      46.5942      45.2962      45.6308       1.0568     156.8750
    5757.5       6.1250       0.1517       5.0000      15.0880       2.9343       0.2761      -0.0894       0.2521       2.5546       2.3998      36.2824      43.7071      46.5942      45.2962      45.6308       1.0568     154.6875
    5757.0       6.1250       0.1517       5.0000      15.0880       2.9343       0.2761      -0.1341       0.2521       2.5555       2.3998      36.2824      43.7071      46.5942      45.2962      45.6308       1.0568     154.5625
    5756.5       6.1250       0.1517       5.0000      15.0880       2.9343       0.2761      -0.1788       0.2521       2.5565       2.3998      36.2824      43.7071      46.5942      45.2962      45.6308       1.0568     155.5625
    5756.0       6.1250       0.1517       5.0000      15.0880       2.9343       0.2761      -0.2235       0.2521       2.5575       2.3998      36.2824      43.7071      46.5942      45.2962      45.6308       1.0568     156.6875
    5755.5       6.1250       0.1517       5.0000      15.0880       2.9343       0.2761      -0.2682       0.2521       2.5585       2.3998      36.2824      43.7071      46.5942      45.2962      45.6308       1.0568     156.8750
    5755.0       6.1250       0.1517       5.0000      15.0880       2.9343       0.2761      -0.3129       0.2521       2.5594       2.3998      36.2824      43.7071      46.5942      45.2962      45.6308       1.0568     157.3750
    5754.5       6.1250       0.1517       5.0000      15.0880       2.9343       0.2761      -0.3576       0.2521       2.5604       2.3998      36.2824      43.7071      46.5942      45.2962      45.6308       1.0568     155.6875
    5754.0       6.1250       0.1517       5.0000      15.0880       2.9343       0.2760      -0.4022       0.2521       2.5606       2.3996      36.2824      43.7071      46.5942      45.2962      45.6308       1.0568     154.9375
    5753.5       6.1250       0.1529       5.0000      15.0880       2.9343       0.2740      -0.4469       0.2521       2.5585       2.3977      36.2824      43.7071      46.5942      45.2962      45.6308       1.0568     154.7500
    5753.0       6.1250       0.1634       5.0000      15.0880       2.9343       0.2568      -0.4916       0.2521       2.5639       2.3804      36.3495      43.7423      46.5965      45.2788      45.5970       1.0568     154.6250
    5752.5       6.1250       0.1906       5.0000      15.0880       2.9343       0.2104      -0.5363       0.2521       2.5873       2.3355      36.3850      43.8103      46.6596      45.3332      45.6444       1.0568     155.7500
    5752.0       6.1250       0.1956       5.0000      15.0880       3.2526       0.1600      -0.5757       0.2521       2.5993       2.3273      36.5561      44.0712      46.9080      45.5521      45.8293       1.1831     156.3125
    5751.5       6.1250       0.1568       5.0000      15.0880       5.4049       0.1332      -0.5642       0.2511       2.5835       2.3913      36.7714      44.3411      47.1643      45.7774      46.0177       1.7782     156.3125
    5751.0       6.1250       0.0980       5.0000      15.0880       5.4727       0.1316      -0.5507       0.2510       2.5425       2.4882      37.0201      44.6092      47.4179      45.9995      46.2020       3.7079     156.3750
