~VERSION INFORMATION
VERS.           2.0   :CWLS Log ASCII Standard - VERSION 2.0
WRAP.           NO    :One Line per depth step
PROD.  Schlumberger   :LAS Producer
PROG.  DLIS to ASCII 11C0-305                          :LAS Program name and version
CREA.        2004/05/20 01:33                          :LAS Creation date {YYYY/MM/DD hh:mm}
SOURCE.     AIT_TLD_MCFL_CNL_019PUP.DLIS               :DLIS File Name
FILE-ID.     AIT_TLD_MCFL_CNL_019PUP                   :File Identification Number
#--------------------------------------------------
~WELL INFORMATION
#MNEM.UNIT      DATA             DESCRIPTION
#---- ------ --------------   -----------------------------
STRT .F         5768.0       :START DEPTH     
STOP .F         4226.5       :STOP DEPTH     
STEP .F           -0.5       :STEP     
NULL .          -999.25      :NULL VALUE
COMP .        DEPARTMENT OF ENERGY                     :COMPANY
WELL .        48X - 28                                 :WELL
FLD  .        NAVAL PETROLEUM RESERVE # 3              :FIELD
LOC  .        490' FSL, 2449' FWL                      :LOCATION
CNTY .        NATRONA                                  :COUNTY
STAT .        WYOMING                                  :STATE
CTRY .                                                 :COUNTRY
API  .        49-025-23195                             :API NUMBER
UWI  .                                                 :UNIQUE WELL ID
DATE .        19-May-2004                              :LOG DATE {DD-MMM-YYYY}
SRVC .        Schlumberger                             :SERVICE COMPANY
LATI .DEG                                              :LATITUDE
LONG .DEG                                              :LONGITUDE
GDAT .                                                 :GeoDetic Datum
SECT .        28                                       :Section
RANG .        78W                                      :Range
TOWN .        39N                                      :Township
#-----------------------------------------------------------------------------
~PARAMETER INFORMATION
#MNEM.UNIT    VALUE                      DESCRIPTION
#---- -----   --------------------       ------------------------
RUN  .          1                        :RUN NUMBER
PDAT .        GROUND LEVEL               :Permanent Datum
EPD  .C3                                 :Elevation of Permanent Datum above Mean Sea Level
EPD  .C3                                 :Elevation of tool zero above Mean Sea Level
LMF  .          KELLY BUSHING            :Logging Measured From (Name of Logging Elevation Reference)
APD  .                                   :Elevation of Depth Reference (LMF) above Permanent Datum
#-----------------------------------------------------------------------------
~CURVE INFORMATION
#MNEM.UNIT   API CODE                                  DESCRIPTION
#---- -----  --------                                  -----------------------
DEPT .F                                                :DEPTH (BOREHOLE) {F10.1}
BS   .IN                                               :Bit Size {F13.4}
DPHZ .CFCF                                             :HRDD Standard Resolution Density Porosity {F13.4}
FCD  .IN                                               :Future Casing Diameter {F13.4}
GR   .GAPI                                             :Gamma-Ray {F13.4}
HCAL .IN                                               :HRCC Cal. Caliper {F13.4}
HDRA .G/C3                                             :HRDD Density Correction {F13.4}
ICV  .F3                                               :Integrated Cement Volume {F13.4}
NPOR .CFCF                                             :Enhanced Thermal Neutron Porosity {F13.4}
PEFZ .                                                 :HRDD Standard Resolution Formation Photoelectric Factor {F13.4}
RHOZ .G/C3                                             :HRDD Standard Resolution Formation Density {F13.4}
RLA1 .OHMM                                             :HRLT Borehole Corrected Resistivity 1 {F13.4}
RLA2 .OHMM                                             :HRLT Borehole Corrected Resistivity 2 {F13.4}
RLA3 .OHMM                                             :HRLT Borehole Corrected Resistivity 3 {F13.4}
RLA4 .OHMM                                             :HRLT Borehole Corrected Resistivity 4 {F13.4}
RLA5 .OHMM                                             :HRLT Borehole Corrected Resistivity 5 {F13.4}
RXOZ .OHMM                                             :MCFL Standard Resolution Invaded Zone Resistivity {F13.4}
SP   .MV                                               :Spontaneous Potential {F13.4}
#-----------------------------------------------------------------------------
# 
#     DEPT        BS           DPHZ         FCD          GR           HCAL         HDRA         ICV          NPOR         PEFZ         RHOZ         RLA1         RLA2         RLA3         RLA4         RLA5         RXOZ         SP
#
~A  
# ...
    5365.5       6.1250      -0.0580       5.0000      86.1035       6.3632       0.0018      29.0747       0.0642       3.4326       2.7457      98.2864      91.8931      92.9295      92.2289     103.1475     110.8739      93.1875
    5365.0       6.1250      -0.0502       5.0000      91.5264       6.3520      -0.0014      29.1165       0.0710       3.4505       2.7328      97.0374      91.7479      91.8227      92.2081     101.3178     136.6109      92.8750
    5364.5       6.1250      -0.0491       5.0000      96.7671       6.3520      -0.0019      29.1584       0.0619       3.4393       2.7311     102.2801      98.3003      98.9304      99.0104     107.8608     118.0751      93.0625
    5364.0       6.1250      -0.0545       5.0000     108.8232       6.3520       0.0005      29.2002       0.0796       3.3497       2.7400      81.0627      77.7647      77.6850      75.8545      82.3831      91.7763      93.9375
    5363.5       6.1250      -0.0480       5.0000     116.9445       6.3520      -0.0014      29.2421       0.0958       3.3527       2.7291      71.9477      69.2795      69.3951      67.5907      73.7792      68.7715      94.4375
    5363.0       6.1250      -0.0413       5.0000     125.7576       6.3520      -0.0029      29.2839       0.0965       3.3988       2.7182      67.3551      65.2887      64.6533      61.7734      67.1263      64.3126      93.3750
    5362.5       6.1250      -0.0339       5.0000     128.7250       6.3297      -0.0053      29.3250       0.1025       3.4710       2.7060      57.5806      55.8918      53.9011      51.6315      55.8885      65.5176      93.2500
    5362.0       6.1250      -0.0339       5.0000     133.5354       6.3520      -0.0057      29.3669       0.0883       3.4796       2.7059      61.1214      59.5029      55.9958      52.6382      56.9772      67.5420      93.5000
    5361.5       6.1250      -0.0346       5.0000     134.0125       6.3074      -0.0059      29.4072       0.0896       3.4908       2.7070      68.6827      65.8667      61.6315      57.5705      61.6339      66.5796      93.5000
    5361.0       6.1250      -0.0359       5.0000     131.2537       6.3297      -0.0057      29.4483       0.0857       3.5272       2.7092      73.4683      69.2111      65.1348      59.5491      63.4604      71.8757      92.8125
    5360.5       6.1250      -0.0605       5.0000     115.7123       6.3074       0.0059      29.4886       0.0780       3.5951       2.7498      82.6943      78.7630      75.4382      69.5864      73.3234      78.9632      92.1875
    5360.0       6.1250      -0.0972       5.0000      84.9918       6.3297       0.0168      29.5297       0.0630       3.7471       2.8104      87.8571      83.4736      81.4760      77.1017      80.6849     116.0910      91.1875
    5359.5       6.1250      -0.1374       5.0000      57.2267       6.3074       0.0328      29.5700       0.0345       3.9141       2.8767     123.6575     118.7434     119.3151     108.0301     113.7957     186.8311      90.9375
    5359.0       6.1250      -0.1429       5.0000      41.4819       6.2850       0.0316      29.6095       0.0432       4.0189       2.8858     573.5576     544.9706     578.2633     555.4703     685.9435     221.7572      90.3750
    5358.5       6.1250      -0.1204       5.0000      50.2868       6.3074       0.0229      29.6498       0.0538       3.9758       2.8487     519.1996     515.7687     562.6226     535.5569     648.0356     132.0884      90.6875
    5358.0       6.1250      -0.0869       5.0000      63.6410       6.2850       0.0071      29.6894       0.0667       3.9041       2.7935     216.0922     232.7839     241.3875     240.4315     297.8911      96.7597      90.8125
    5357.5       6.1250      -0.0623       5.0000      78.0327       6.2962      -0.0034      29.7293       0.0764       3.8371       2.7528     132.8180     139.3791     141.2296     148.4986     171.0614      75.5035      90.6250
    5357.0       6.1250      -0.0537       5.0000      88.5140       6.2850      -0.0047      29.7688       0.1152       3.7683       2.7386      98.9994      97.4065      97.5492     103.7881     126.1034      52.0606      90.5000
    5356.5       6.1250      -0.0489       5.0000      97.2934       6.2850      -0.0042      29.8084       0.1430       3.6717       2.7307      59.3145      57.1353      57.2615      57.3112      68.0467      30.9974      90.3125
    5356.0       6.1250      -0.0441       5.0000     102.2235       6.2627       0.0052      29.8472       0.1532       3.5770       2.7228      43.9185      43.1935      42.8103      42.7430      50.2776      23.5978      90.6875
    5355.5       6.1250      -0.0396       5.0000     103.1690       6.2739       0.0177      29.8863       0.1550       3.4873       2.7154      40.9476      41.6137      41.5436      40.1550      46.0268      24.8269      91.3750
    5355.0       6.1250      -0.0400       5.0000     108.3834       6.2850       0.0168      29.9259       0.1296       3.3851       2.7160      47.4531      47.8301      48.3542      47.2514      53.8618      34.1299      91.3750
    5354.5       6.1250      -0.0422       5.0000     110.7681       6.2627       0.0079      29.9647       0.1484       3.3183       2.7196      50.7580      51.8049      52.7344      51.8722      55.9599      42.0363      91.3125
    5354.0       6.1250      -0.0404       5.0000     116.7308       6.2627      -0.0058      30.0034       0.1606       3.3109       2.7167      42.1960      43.6694      45.2677      44.6653      46.9140      36.8073      91.4375
    5353.5       6.1250      -0.0356       5.0000     114.8536       6.2627      -0.0056      30.0422       0.1492       3.3370       2.7087      35.9415      37.3225      39.3775      39.0084      39.7368      39.4107      91.5000
    5353.0       6.1250      -0.0359       5.0000     121.7218       6.2627      -0.0025      30.0810       0.1505       3.3186       2.7093      39.2879      40.1971      43.1170      42.1681      43.5159      44.4309      91.8125
    5352.5       6.1250      -0.0332       5.0000     123.4334       6.2627      -0.0005      30.1198       0.1468       3.3031       2.7048      40.5056      41.5927      44.5919      45.0217      44.8937      51.8673      93.0000
    5352.0       6.1250      -0.0287       5.0000     125.3864       6.2404      -0.0002      30.1578       0.1559       3.2747       2.6974      37.9700      38.5381      40.6568      42.4303      41.5060      49.9368      92.5000
    5351.5       6.1250      -0.0174       5.0000     122.8835       6.3074      -0.0013      30.1981       0.1601       3.2860       2.6788      40.5158      41.1729      42.8209      46.1077      43.4552      52.9148      92.8125
    5351.0       6.1250      -0.0159       5.0000     123.0777       6.3744      -0.0040      30.2407       0.1538       3.2630       2.6762      38.5572      38.2593      40.4319      45.1675      41.4345      55.4950      92.8750
    5350.5       6.1250      -0.0258       5.0000     122.5847       6.4191      -0.0025      30.2849       0.1448       3.2079       2.6926      37.5625      36.9453      39.6102      42.3916      39.0236      51.8397      92.8125
    5350.0       6.1250      -0.0427       5.0000     119.4117       6.3744      -0.0014      30.3276       0.1455       3.1355       2.7205      38.4825      38.1907      41.5886      42.6374      40.2476      57.5249      93.1250
    5349.5       6.1250      -0.0526       5.0000     109.2490       6.3967       0.0008      30.3710       0.1361       3.1053       2.7368      39.6999      40.1511      43.5172      44.0053      42.5108      74.9980      93.0000
    5349.0       6.1250      -0.0530       5.0000     103.0287       6.3967       0.0001      30.4144       0.1178       3.1237       2.7375      49.6763      51.8967      52.8483      52.8712      53.6457     106.8638      92.8125
    5348.5       6.1250      -0.0620       5.0000      99.7359       6.3967       0.0114      30.4578       0.1423       3.1741       2.7523      64.2947      69.3566      69.6959      70.0523      70.0131      69.1652      92.8750
