~VERSION INFORMATION
VERS.           2.0   :CWLS Log ASCII Standard - VERSION 2.0
WRAP.           NO    :One Line per depth step
PROD.  Schlumberger   :LAS Producer
PROG.  DLIS to ASCII 11C0-305                          :LAS Program name and version
CREA.        2004/05/20 01:33                          :LAS Creation date {YYYY/MM/DD hh:mm}
SOURCE.     AIT_TLD_MCFL_CNL_019PUP.DLIS               :DLIS File Name
FILE-ID.     AIT_TLD_MCFL_CNL_019PUP                   :File Identification Number
#--------------------------------------------------
~WELL INFORMATION
#MNEM.UNIT      DATA             DESCRIPTION
#---- ------ --------------   -----------------------------
STRT .F         5768.0       :START DEPTH     
STOP .F         4226.5       :STOP DEPTH     
STEP .F           -0.5       :STEP     
NULL .          -999.25      :NULL VALUE
COMP .        DEPARTMENT OF ENERGY                     :COMPANY
WELL .        48X - 28                                 :WELL
FLD  .        NAVAL PETROLEUM RESERVE # 3              :FIELD
LOC  .        490' FSL, 2449' FWL                      :LOCATION
CNTY .        NATRONA                                  :COUNTY
STAT .        WYOMING                                  :STATE
CTRY .                                                 :COUNTRY
API  .        49-025-23195                             :API NUMBER
UWI  .                                                 :UNIQUE WELL ID
DATE .        19-May-2004                              :LOG DATE {DD-MMM-YYYY}
SRVC .        Schlumberger                             :SERVICE COMPANY
LATI .DEG                                              :LATITUDE
LONG .DEG                                              :LONGITUDE
GDAT .                                                 :GeoDetic Datum
SECT .        28                                       :Section
RANG .        78W                                      :Range
TOWN .        39N                                      :Township
#-----------------------------------------------------------------------------
~PARAMETER INFORMATION
#MNEM.UNIT    VALUE                      DESCRIPTION
#---- -----   --------------------       ------------------------
RUN  .          1                        :RUN NUMBER
PDAT .        GROUND LEVEL               :Permanent Datum
EPD  .C3                                 :Elevation of Permanent Datum above Mean Sea Level
EPD  .C3                                 :Elevation of tool zero above Mean Sea Level
LMF  .          KELLY BUSHING            :Logging Measured From (Name of Logging Elevation Reference)
APD  .                                   :Elevation of Depth Reference (LMF) above Permanent Datum
#-----------------------------------------------------------------------------
~CURVE INFORMATION
#MNEM.UNIT   API CODE                                  DESCRIPTION
#---- -----  --------                                  -----------------------
DEPT .F                                                :DEPTH (BOREHOLE) {F10.1}
BS   .IN                                               :Bit Size {F13.4}
DPHZ .CFCF                                             :HRDD Standard Resolution Density Porosity {F13.4}
FCD  .IN                                               :Future Casing Diameter {F13.4}
GR   .GAPI                                             :Gamma-Ray {F13.4}
HCAL .IN                                               :HRCC Cal. Caliper {F13.4}
HDRA .G/C3                                             :HRDD Density Correction {F13.4}
ICV  .F3                                               :Integrated Cement Volume {F13.4}
NPOR .CFCF                                             :Enhanced Thermal Neutron Porosity {F13.4}
PEFZ .                                                 :HRDD Standard Resolution Formation Photoelectric Factor {F13.4}
RHOZ .G/C3                                             :HRDD Standard Resolution Formation Density {F13.4}
RLA1 .OHMM                                             :HRLT Borehole Corrected Resistivity 1 {F13.4}
RLA2 .OHMM                                             :HRLT Borehole Corrected Resistivity 2 {F13.4}
RLA3 .OHMM                                             :HRLT Borehole Corrected Resistivity 3 {F13.4}
RLA4 .OHMM                                             :HRLT Borehole Corrected Resistivity 4 {F13.4}
RLA5 .OHMM                                             :HRLT Borehole Corrected Resistivity 5 {F13.4}
RXOZ .OHMM                                             :MCFL Standard Resolution Invaded Zone Resistivity {F13.4}
SP   .MV                                               :Spontaneous Potential {F13.4}
#-----------------------------------------------------------------------------
# 
#     DEPT        BS           DPHZ         FCD          GR           HCAL         HDRA         ICV          NPOR         PEFZ         RHOZ         RLA1         RLA2         RLA3         RLA4         RLA5         RXOZ         SP
#
~A  
# ...
    5470.5       6.1250       0.0600       5.0000      39.3723       6.3632      -0.0008      19.2863       0.0976       2.2462       2.5511      21.5922      33.4037      38.5192      44.8859      60.9210      11.6503     141.3125
    5470.0       6.1250       0.0649       5.0000      42.3468       6.3520       0.0020      19.3282       0.1037       2.2105       2.5429      16.3597      22.8776      27.1033      31.9131      41.9492       9.5129     141.2500
    5469.5       6.1250       0.0750       5.0000      39.9272       6.3520       0.0013      19.3700       0.0964       2.2573       2.5262      13.8766      16.7755      21.7688      25.2653      31.9843       8.4198     141.4375
    5469.0       6.1250       0.0796       5.0000      37.2097       6.3520      -0.0010      19.4119       0.1160       2.3495       2.5187      13.7528      15.9615      21.3660      23.6585      30.1456       9.4343     140.9375
    5468.5       6.1250       0.0713       5.0000      30.4198       6.3520      -0.0018      19.4537       0.1018       2.4132       2.5324      13.3948      16.5855      20.9655      24.7846      31.0493      11.4168     140.6250
    5468.0       6.1250       0.0581       5.0000      36.3851       6.3744      -0.0012      19.4964       0.0924       2.3964       2.5542      15.1804      20.9093      24.8851      29.0562      37.1582      12.8390     141.5625
    5467.5       6.1250       0.0524       5.0000      31.7020       6.3744      -0.0002      19.5390       0.0813       2.3438       2.5636      21.7948      33.1103      39.6094      45.5732      58.6727      11.7014     141.3125
    5467.0       6.1250       0.0584       5.0000      30.9866       6.3744       0.0003      19.5816       0.0881       2.2954       2.5537      19.6698      28.1414      32.7895      36.6701      46.7048      10.1866     141.1875
    5466.5       6.1250       0.0721       5.0000      25.5636       6.3744       0.0003      19.6243       0.0976       2.2959       2.5310      19.0463      25.7944      29.7452      31.0492      39.1265       8.9502     141.1250
    5466.0       6.1250       0.0759       5.0000      27.0026       6.3520       0.0006      19.6661       0.1029       2.2708       2.5248      18.1980      21.6713      25.2486      27.2192      34.4303       9.0114     140.6250
    5465.5       6.1250       0.0666       5.0000      29.9193       6.3520      -0.0005      19.7080       0.0939       2.2627       2.5402      17.3766      19.0508      22.1693      24.8092      30.6022      10.1737     140.5625
    5465.0       6.1250       0.0417       5.0000      29.6151       6.3297      -0.0011      19.7490       0.0785       2.2720       2.5812      21.8815      25.0546      29.0352      32.3124      40.0319      15.5715     140.7500
    5464.5       6.1250       0.0222       5.0000      28.0621       6.3297      -0.0038      19.7901       0.0623       2.3581       2.6134      29.9424      37.0125      41.3993      48.9880      60.0494      25.3632     140.1250
    5464.0       6.1250       0.0076       5.0000      24.1915       6.3074      -0.0043      19.8304       0.0602       2.4600       2.6374      54.0581      71.2871      83.3032      95.3786     125.5931      50.2647     139.8125
    5463.5       6.1250      -0.0084       5.0000      20.5327       6.3074      -0.0007      19.8708       0.0560       2.5047       2.6638     108.9349     150.2819     190.2129     218.6630     296.0341      74.1085     140.4375
    5463.0       6.1250      -0.0220       5.0000      19.9396       6.3074       0.0032      19.9111       0.0545       2.5170       2.6863     112.3132     150.9960     194.7014     224.2098     308.2321      85.5795     140.4375
    5462.5       6.1250      -0.0333       5.0000      18.8043       6.3074       0.0047      19.9514       0.0562       2.5522       2.7050     109.8726     134.3676     170.0458     196.5542     277.1151      73.6444     141.1250
    5462.0       6.1250      -0.0404       5.0000      20.3192       6.3074       0.0020      19.9917       0.0511       2.6750       2.7166     106.8666     116.8058     140.0918     169.5349     238.3702      80.8908     140.8125
    5461.5       6.1250      -0.0591       5.0000      19.6609       6.2962       0.0042      20.0316       0.0458       2.8411       2.7476     108.4038     114.0505     129.5362     155.3507     227.6533      88.1575     140.1250
    5461.0       6.1250      -0.0837       5.0000      17.2191       6.3074       0.0156      20.0719       0.0454       3.0252       2.7881     106.2063     108.8847     116.1477     141.8070     204.2536     157.1566     139.8750
    5460.5       6.1250      -0.1049       5.0000      14.4528       6.2962       0.0322      20.1119       0.0474       3.1250       2.8231     118.1067     122.9077     128.5672     147.3031     219.5818      47.0110     138.7500
    5460.0       6.1250      -0.1009       5.0000      18.2005       6.3074       0.0353      20.1522       0.0430       3.1024       2.8165     156.1429     172.1827     179.8251     195.5629     298.7491      47.6674     138.3125
    5459.5       6.1250      -0.0801       5.0000      23.7709       6.2739       0.0242      20.1913       0.0482       2.9398       2.7822     240.8376     282.5843     299.6900     310.9910     461.4491      47.9936     137.7500
    5459.0       6.1250      -0.0567       5.0000      36.0835       6.2404       0.0090      20.2293       0.0467       2.7756       2.7436     320.9429     356.2849     369.4857     373.4179     492.2750     119.6596     137.9375
    5458.5       6.1250      -0.0498       5.0000      39.0103       6.2627       0.0052      20.2681       0.0393       2.6986       2.7321     242.9145     248.4769     255.9840     255.7350     320.7012     115.3782     137.0625
    5458.0       6.1250      -0.0500       5.0000      42.9785       6.2404       0.0077      20.3061       0.0301       2.7108       2.7325     211.4607     208.0040     217.3542     209.7919     261.9212     171.2184     136.6875
    5457.5       6.1250      -0.0459       5.0000      36.9232       6.2739       0.0080      20.3453       0.0304       2.7006       2.7258     237.9965     234.4873     244.1269     237.6197     291.0089     137.4201     135.6250
    5457.0       6.1250      -0.0383       5.0000      41.1428       6.2850       0.0073      20.3849       0.0297       2.6600       2.7132     286.0709     291.2101     296.6273     290.9538     350.5744      70.3944     134.5000
    5456.5       6.1250      -0.0348       5.0000      44.2429       6.2404       0.0073      20.4229       0.0261       2.6103       2.7074     277.0753     283.3909     284.3481     276.7695     330.2764      73.6167     134.1875
    5456.0       6.1250      -0.0280       5.0000      49.4573       6.2404       0.0045      20.4609       0.0247       2.6410       2.6962     382.5065     401.1068     408.4381     403.7135     471.1739     103.8489     134.3125
    5455.5       6.1250      -0.0264       5.0000      42.5601       6.2069       0.0025      20.4978       0.0248       2.6829       2.6936     406.0160     432.8912     446.5989     451.7629     506.0884     282.1031     134.0000
    5455.0       6.1250      -0.0277       5.0000      39.0375       6.2180       0.0027      20.5350       0.0225       2.7267       2.6958     348.3969     383.4652     413.7650     428.1054     468.1549      78.5745     133.5000
    5454.5       6.1250      -0.0412       5.0000      32.4760       6.2180       0.0061      20.5723       0.0234       2.7465       2.7179     452.6882     483.1848     535.8350     559.0869     592.0865      74.1005     133.4375
    5454.0       6.1250      -0.0453       5.0000      33.0679       6.1957       0.0026      20.6088       0.0168       2.7606       2.7247     534.2593     551.0781     632.9603     657.5211     678.1309      83.6521     132.8125
    5453.5       6.1250      -0.0387       5.0000      28.2441       6.1957      -0.0001      20.6453       0.0199       2.7473       2.7139     518.4645     553.8765     620.8059     648.8821     659.0259     253.8765     131.5000
