~VERSION INFORMATION
VERS.           2.0   :CWLS Log ASCII Standard - VERSION 2.0
WRAP.           NO    :One Line per depth step
PROD.  Schlumberger   :LAS Producer
PROG.  DLIS to ASCII 11C0-305                          :LAS Program name and version
CREA.        2004/05/20 01:33                          :LAS Creation date {YYYY/MM/DD hh:mm}
SOURCE.     AIT_TLD_MCFL_CNL_019PUP.DLIS               :DLIS File Name
FILE-ID.     AIT_TLD_MCFL_CNL_019PUP                   :File Identification Number
#--------------------------------------------------
~WELL INFORMATION
#MNEM.UNIT      DATA             DESCRIPTION
#---- ------ --------------   -----------------------------
STRT .F         5768.0       :START DEPTH     
STOP .F         4226.5       :STOP DEPTH     
STEP .F           -0.5       :STEP     
NULL .          -999.25      :NULL VALUE
COMP .        DEPARTMENT OF ENERGY                     :COMPANY
WELL .        48X - 28                                 :WELL
FLD  .        NAVAL PETROLEUM RESERVE # 3              :FIELD
LOC  .        490' FSL, 2449' FWL                      :LOCATION
CNTY .        NATRONA                                  :COUNTY
STAT .        WYOMING                                  :STATE
CTRY .                                                 :COUNTRY
API  .        49-025-23195                             :API NUMBER
UWI  .                                                 :UNIQUE WELL ID
DATE .        19-May-2004                              :LOG DATE {DD-MMM-YYYY}
SRVC .        Schlumberger                             :SERVICE COMPANY
LATI .DEG                                              :LATITUDE
LONG .DEG                                              :LONGITUDE
GDAT .                                                 :GeoDetic Datum
SECT .        28                                       :Section
RANG .        78W                                      :Range
TOWN .        39N                                      :Township
#-----------------------------------------------------------------------------
~PARAMETER INFORMATION
#MNEM.UNIT    VALUE                      DESCRIPTION
#---- -----   --------------------       ------------------------
RUN  .          1                        :RUN NUMBER
PDAT .        GROUND LEVEL               :Permanent Datum
EPD  .C3                                 :Elevation of Permanent Datum above Mean Sea Level
EPD  .C3                                 :Elevation of tool zero above Mean Sea Level
LMF  .          KELLY BUSHING            :Logging Measured From (Name of Logging Elevation Reference)
APD  .                                   :Elevation of Depth Reference (LMF) above Permanent Datum
#-----------------------------------------------------------------------------
~CURVE INFORMATION
#MNEM.UNIT   API CODE                                  DESCRIPTION
#---- -----  --------                                  -----------------------
DEPT .F                                                :DEPTH (BOREHOLE) {F10.1}
BS   .IN                                               :Bit Size {F13.4}
DPHZ .CFCF                                             :HRDD Standard Resolution Density Porosity {F13.4}
FCD  .IN                                               :Future Casing Diameter {F13.4}
GR   .GAPI                                             :Gamma-Ray {F13.4}
HCAL .IN                                               :HRCC Cal. Caliper {F13.4}
HDRA .G/C3                                             :HRDD Density Correction {F13.4}
ICV  .F3                                               :Integrated Cement Volume {F13.4}
NPOR .CFCF                                             :Enhanced Thermal Neutron Porosity {F13.4}
PEFZ .                                                 :HRDD Standard Resolution Formation Photoelectric Factor {F13.4}
RHOZ .G/C3                                             :HRDD Standard Resolution Formation Density {F13.4}
RLA1 .OHMM                                             :HRLT Borehole Corrected Resistivity 1 {F13.4}
RLA2 .OHMM                                             :HRLT Borehole Corrected Resistivity 2 {F13.4}
RLA3 .OHMM                                             :HRLT Borehole Corrected Resistivity 3 {F13.4}
RLA4 .OHMM                                             :HRLT Borehole Corrected Resistivity 4 {F13.4}
RLA5 .OHMM                                             :HRLT Borehole Corrected Resistivity 5 {F13.4}
RXOZ .OHMM                                             :MCFL Standard Resolution Invaded Zone Resistivity {F13.4}
SP   .MV                                               :Spontaneous Potential {F13.4}
#-----------------------------------------------------------------------------
# 
#     DEPT        BS           DPHZ         FCD          GR           HCAL         HDRA         ICV          NPOR         PEFZ         RHOZ         RLA1         RLA2         RLA3         RLA4         RLA5         RXOZ         SP
#
~A  
# ...
    4648.0       6.1250      -0.0052       5.0000      95.7601       7.0222       0.0004     136.9294       0.1200       3.3069       2.6587      21.3176      20.8712      20.3375      19.5042      19.5449      24.7516      82.7500
    4647.5       6.1250       0.0012       5.0000      96.7006       7.0445      -0.0031     136.9966       0.1254       3.3705       2.6481      24.2155      23.8193      23.5848      23.2263      23.2917      32.0304      82.6250
    4647.0       6.1250       0.0052       5.0000      94.6282       7.0222      -0.0059     137.0629       0.1195       3.4816       2.6415      25.7271      25.1107      25.2611      24.9850      25.0083      33.1865      82.5000
    4646.5       6.1250       0.0018       5.0000      97.2093       6.9999      -0.0050     137.1283       0.1136       3.5327       2.6470      25.9120      24.7769      25.2573      25.2535      25.1598      32.6332      82.0625
    4646.0       6.1250       0.0011       5.0000      95.5407       7.0445      -0.0050     137.1954       0.1093       3.5622       2.6482      26.1503      24.9317      25.3173      25.3819      25.3717      33.6419      81.5000
    4645.5       6.1250       0.0007       5.0000      93.3945       7.0445      -0.0056     137.2626       0.1201       3.5481       2.6489      25.0099      23.7322      24.1895      24.3298      24.3879      32.5153      82.1250
    4645.0       6.1250      -0.0028       5.0000      95.8974       7.0445      -0.0060     137.3298       0.1226       3.4859       2.6546      24.8716      23.8736      24.2551      24.1325      24.1941      31.5772      81.3750
    4644.5       6.1250      -0.0099       5.0000      98.4966       7.0445      -0.0048     137.3969       0.1215       3.3923       2.6663      24.8146      24.5402      24.1158      24.0869      24.0512      28.6674      81.7500
    4644.0       6.1250      -0.0138       5.0000     117.3154       7.0445      -0.0050     137.4641       0.1365       3.3692       2.6728      23.2233      22.6909      22.4771      22.5506      22.6413      25.1035      81.6875
    4643.5       6.1250      -0.0145       5.0000     135.0443       7.0557      -0.0061     137.5316       0.1671       3.4357       2.6739      20.3289      19.2735      20.3234      18.9789      19.1585      17.7474      81.6875
    4643.0       6.1250      -0.0115       5.0000     152.9660       7.0445      -0.0079     137.5988       0.2619       3.5614       2.6690      16.5499      15.7013      15.6816      14.8109      14.8478      13.0268      81.7500
    4642.5       6.1250      -0.0121       5.0000     152.3403       7.0669      -0.0069     137.6668       0.3170       3.6165       2.6700      10.6684      10.1088       9.7869       9.2900       9.2521      11.2117      81.6250
    4642.0       6.1250      -0.0096       5.0000     146.9169       7.0445      -0.0053     137.7340       0.2714       3.6040       2.6659       8.8102       8.2975       8.0119       7.5552       7.5341      12.4832      81.2500
    4641.5       6.1250      -0.0173       5.0000     139.5782       7.0669      -0.0001     137.8020       0.2153       3.5010       2.6786       9.7538       9.2253       8.6180       8.3579       8.3115      14.8610      81.3125
    4641.0       6.1250      -0.0198       5.0000     132.5477       7.0669       0.0019     137.8700       0.1957       3.3691       2.6826      12.6335      11.9492      11.4680      10.7891      10.7559      16.4402      81.6250
    4640.5       6.1250      -0.0200       5.0000     125.2481       7.0445       0.0022     137.9371       0.1941       3.2748       2.6829      13.9802      13.5160      13.0095      12.2772      12.1997      16.8569      82.4375
    4640.0       6.1250      -0.0118       5.0000     107.7861       7.0445      -0.0002     138.0043       0.1492       3.2265       2.6695      13.4714      13.4777      12.6943      12.1477      11.9750      19.7379      83.3125
    4639.5       6.1250      -0.0100       5.0000      92.2905       6.9999       0.0004     138.0697       0.1084       3.2155       2.6665      16.1468      16.2986      15.2370      14.8026      14.5352      23.3889      83.8750
    4639.0       6.1250      -0.0085       5.0000      83.6300       6.9328       0.0011     138.1326       0.1021       3.2187       2.6640      21.4345      21.0575      21.3741      20.0565      19.8727      22.0987      83.3750
    4638.5       6.1250      -0.0037       5.0000      90.8297       6.9105      -0.0007     138.1947       0.1024       3.2470       2.6562      23.4821      22.7960      23.1175      22.3406      22.1248      22.2810      82.8750
    4638.0       6.1250      -0.0051       5.0000      96.1166       6.8658      -0.0017     138.2551       0.0911       3.2514       2.6584      22.5281      22.0977      22.0508      21.4631      21.2220      25.8116      82.8125
    4637.5       6.1250      -0.0088       5.0000      92.4712       6.8435      -0.0023     138.3146       0.0936       3.2474       2.6645      25.5282      24.6578      24.6949      24.1257      24.2824      32.9617      83.1250
    4637.0       6.1250      -0.0122       5.0000      88.3716       6.8211      -0.0019     138.3733       0.0922       3.2381       2.6702      29.8554      28.5735      28.5127      28.2919      28.4908      33.6450      83.6875
    4636.5       6.1250      -0.0134       5.0000      85.1704       6.8100      -0.0009     138.4316       0.0954       3.2321       2.6721      29.3827      28.0102      27.6025      27.2907      27.7750      32.7259      84.0625
    4636.0       6.1250      -0.0064       5.0000      90.9597       6.7765      -0.0026     138.4886       0.0983       3.2657       2.6606      27.9372      26.5778      26.0578      25.5730      26.3119      32.8082      84.0625
    4635.5       6.1250      -0.0034       5.0000      88.1764       6.7765      -0.0029     138.5457       0.0923       3.2921       2.6556      27.9623      26.5385      25.7084      25.2313      26.2589      32.8406      83.4375
    4635.0       6.1250       0.0035       5.0000      94.9546       6.7765      -0.0038     138.6028       0.1048       3.3545       2.6443      28.1036      26.8467      26.0894      25.4511      26.5305      32.8996      83.5625
    4634.5       6.1250       0.0123       5.0000      91.4596       6.7541      -0.0046     138.6590       0.0999       3.4296       2.6296      28.1577      27.0987      26.3195      25.8707      26.8966      33.5542      83.8750
    4634.0       6.1250       0.0186       5.0000      96.6276       6.7318      -0.0051     138.7144       0.0911       3.4580       2.6193      28.6461      27.6372      27.0228      26.4243      27.2472      33.0711      84.1250
    4633.5       6.1250       0.0210       5.0000      92.5609       6.7430      -0.0057     138.7702       0.1128       3.4492       2.6153      28.5996      27.2796      27.2076      26.4837      27.1755      29.5500      84.5000
    4633.0       6.1250       0.0197       5.0000      98.4380       6.7541      -0.0060     138.8264       0.1142       3.4288       2.6175      25.2236      24.0851      24.1307      23.3291      23.7522      26.7703      84.8125
    4632.5       6.1250       0.0130       5.0000      96.8158       6.7430      -0.0053     138.8822       0.1155       3.3849       2.6286      22.1257      21.3999      21.1226      20.5147      20.8295      25.9703      84.8125
    4632.0       6.1250       0.0097       5.0000      97.6501       6.7541      -0.0065     138.9385       0.1152       3.3483       2.6340      22.2968      21.9510      21.6192      20.8689      21.1662      27.4781      84.9375
    4631.5       6.1250      -0.0006       5.0000     101.7402       6.7541      -0.0036     138.9947       0.1197       3.2729       2.6510      24.3726      24.0198      23.5601      22.6088      22.6454      27.2194      84.9375
    4631.0       6.1250      -0.0003       5.0000     116.7576       6.7541      -0.0022     139.0509       0.1648       3.2914       2.6506      23.6462      22.7153      22.5042      21.5161      21.4107      18.5011      84.4375
