~VERSION INFORMATION
VERS.           2.0   :CWLS Log ASCII Standard - VERSION 2.0
WRAP.           NO    :One Line per depth step
PROD.  Schlumberger   :LAS Producer
PROG.  DLIS to ASCII 11C0-305                          :LAS Program name and version
CREA.        2004/05/20 01:33                          :LAS Creation date {YYYY/MM/DD hh:mm}
SOURCE.     AIT_TLD_MCFL_CNL_019PUP.DLIS               :DLIS File Name
FILE-ID.     AIT_TLD_MCFL_CNL_019PUP                   :File Identification Number
#--------------------------------------------------
~WELL INFORMATION
#MNEM.UNIT      DATA             DESCRIPTION
#---- ------ --------------   -----------------------------
STRT .F         5768.0       :START DEPTH     
STOP .F         4226.5       :STOP DEPTH     
STEP .F           -0.5       :STEP     
NULL .          -999.25      :NULL VALUE
COMP .        DEPARTMENT OF ENERGY                     :COMPANY
WELL .        48X - 28                                 :WELL
FLD  .        NAVAL PETROLEUM RESERVE # 3              :FIELD
LOC  .        490' FSL, 2449' FWL                      :LOCATION
CNTY .        NATRONA                                  :COUNTY
STAT .        WYOMING                                  :STATE
CTRY .                                                 :COUNTRY
API  .        49-025-23195                             :API NUMBER
UWI  .                                                 :UNIQUE WELL ID
DATE .        19-May-2004                              :LOG DATE {DD-MMM-YYYY}
SRVC .        Schlumberger                             :SERVICE COMPANY
LATI .DEG                                              :LATITUDE
LONG .DEG                                              :LONGITUDE
GDAT .                                                 :GeoDetic Datum
SECT .        28                                       :Section
RANG .        78W                                      :Range
TOWN .        39N                                      :Township
#-----------------------------------------------------------------------------
~PARAMETER INFORMATION
#MNEM.UNIT    VALUE                      DESCRIPTION
#---- -----   --------------------       ------------------------
RUN  .          1                        :RUN NUMBER
PDAT .        GROUND LEVEL               :Permanent Datum
EPD  .C3                                 :Elevation of Permanent Datum above Mean Sea Level
EPD  .C3                                 :Elevation of tool zero above Mean Sea Level
LMF  .          KELLY BUSHING            :Logging Measured From (Name of Logging Elevation Reference)
APD  .                                   :Elevation of Depth Reference (LMF) above Permanent Datum
#-----------------------------------------------------------------------------
~CURVE INFORMATION
#MNEM.UNIT   API CODE                                  DESCRIPTION
#---- -----  --------                                  -----------------------
DEPT .F                                                :DEPTH (BOREHOLE) {F10.1}
BS   .IN                                               :Bit Size {F13.4}
DPHZ .CFCF                                             :HRDD Standard Resolution Density Porosity {F13.4}
FCD  .IN                                               :Future Casing Diameter {F13.4}
GR   .GAPI                                             :Gamma-Ray {F13.4}
HCAL .IN                                               :HRCC Cal. Caliper {F13.4}
HDRA .G/C3                                             :HRDD Density Correction {F13.4}
ICV  .F3                                               :Integrated Cement Volume {F13.4}
NPOR .CFCF                                             :Enhanced Thermal Neutron Porosity {F13.4}
PEFZ .                                                 :HRDD Standard Resolution Formation Photoelectric Factor {F13.4}
RHOZ .G/C3                                             :HRDD Standard Resolution Formation Density {F13.4}
RLA1 .OHMM                                             :HRLT Borehole Corrected Resistivity 1 {F13.4}
RLA2 .OHMM                                             :HRLT Borehole Corrected Resistivity 2 {F13.4}
RLA3 .OHMM                                             :HRLT Borehole Corrected Resistivity 3 {F13.4}
RLA4 .OHMM                                             :HRLT Borehole Corrected Resistivity 4 {F13.4}
RLA5 .OHMM                                             :HRLT Borehole Corrected Resistivity 5 {F13.4}
RXOZ .OHMM                                             :MCFL Standard Resolution Invaded Zone Resistivity {F13.4}
SP   .MV                                               :Spontaneous Potential {F13.4}
#-----------------------------------------------------------------------------
# 
#     DEPT        BS           DPHZ         FCD          GR           HCAL         HDRA         ICV          NPOR         PEFZ         RHOZ         RLA1         RLA2         RLA3         RLA4         RLA5         RXOZ         SP
#
~A  
# ...
    4753.0       6.1250      -0.0505       5.0000     108.4300       7.1562       0.0046     122.7115       0.1320       3.5082       2.7333      38.1775      39.6772      40.2434      38.9140      39.8040      40.5586      82.0625
    4752.5       6.1250      -0.0487       5.0000     120.3188       7.1786       0.0055     122.7839       0.1713       3.5185       2.7303      36.3561      37.0351      38.0921      37.6857      38.8701      25.2769      82.3125
    4752.0       6.1250      -0.0359       5.0000     132.0463       7.2009       0.0015     122.8571       0.2101       3.5757       2.7093      31.7198      31.4133      32.6027      31.8480      32.8876      19.0127      82.1875
    4751.5       6.1250      -0.0269       5.0000     136.0382       7.2009      -0.0021     122.9304       0.2322       3.5964       2.6944      21.2845      20.5356      20.5180      20.2966      21.0362      17.5790      82.3125
    4751.0       6.1250      -0.0306       5.0000     136.0081       7.1897      -0.0017     123.0031       0.2048       3.5424       2.7004      18.7936      17.9925      17.4804      16.9897      17.9036      18.9133      83.1875
    4750.5       6.1250      -0.0340       5.0000     129.0778       7.1786      -0.0017     123.0755       0.1725       3.4754       2.7061      21.8257      21.0186      20.1359      19.5383      20.7259      20.9596      83.6875
    4750.0       6.1250      -0.0398       5.0000     122.2707       7.1786      -0.0008     123.1478       0.1765       3.4169       2.7156      22.6202      21.5750      20.7534      20.2462      21.5005      25.5663      83.9375
    4749.5       6.1250      -0.0358       5.0000     118.3379       7.2009      -0.0031     123.2211       0.1808       3.4270       2.7091      21.6220      20.9713      19.9660      19.0286      19.9443      28.4331      83.3125
    4749.0       6.1250      -0.0306       5.0000     120.9757       7.1786      -0.0055     123.2934       0.1637       3.4279       2.7005      26.5061      26.3604      25.4071      23.9611      25.1203      33.1202      83.4375
    4748.5       6.1250      -0.0263       5.0000     110.2625       7.1562      -0.0074     123.3649       0.1529       3.4121       2.6934      28.3795      28.3472      28.1930      27.0516      27.6327      30.7531      83.5000
    4748.0       6.1250      -0.0290       5.0000     100.0424       7.1562      -0.0064     123.4364       0.1271       3.3694       2.6978      33.4488      33.7507      34.1933      31.9051      32.9578      35.4587      83.3750
    4747.5       6.1250      -0.0325       5.0000      98.3328       7.1562      -0.0051     123.5079       0.1077       3.3567       2.7037      42.0723      43.0837      43.4212      41.2888      41.7653      38.2730      83.4375
    4747.0       6.1250      -0.0355       5.0000     109.1787       7.1562      -0.0034     123.5793       0.1242       3.3837       2.7085      40.4722      41.1496      41.1986      40.0388      39.8249      34.2549      82.7500
    4746.5       6.1250      -0.0333       5.0000     122.1876       7.1562      -0.0040     123.6508       0.1590       3.4557       2.7050      29.8671      29.3913      29.3818      29.3465      28.3910      28.5023      82.8750
    4746.0       6.1250      -0.0317       5.0000     125.4307       7.1562      -0.0042     123.7223       0.1810       3.5266       2.7023      21.6596      20.6000      20.4043      20.2325      19.5415      24.6456      82.6250
    4745.5       6.1250      -0.0257       5.0000     126.2519       7.1562      -0.0064     123.7938       0.1933       3.5870       2.6923      21.2814      20.1308      20.0721      19.4609      18.8338      24.1579      82.8750
    4745.0       6.1250      -0.0282       5.0000     122.6289       7.1562      -0.0051     123.8653       0.1908       3.5459       2.6966      18.0327      17.0606      16.4051      15.7777      15.1672      23.9589      83.4375
    4744.5       6.1250      -0.0308       5.0000     122.7207       7.1562      -0.0037     123.9367       0.1797       3.4859       2.7008      18.5316      18.0858      17.4121      16.3987      15.7615      24.0557      83.0000
    4744.0       6.1250      -0.0367       5.0000     124.6111       7.1562      -0.0003     124.0082       0.1693       3.4431       2.7105      18.3980      18.0264      17.3034      16.2245      15.6086      24.2083      82.8750
    4743.5       6.1250      -0.0369       5.0000     124.6570       7.1562       0.0014     124.0797       0.1625       3.4962       2.7108      19.4242      19.0158      18.3838      16.9259      16.4042      22.3149      82.8750
    4743.0       6.1250      -0.0382       5.0000     126.8596       7.1562       0.0031     124.1512       0.1913       3.5701       2.7131      20.9268      20.4965      19.4861      18.1502      17.5428      19.0422      83.0000
    4742.5       6.1250      -0.0413       5.0000     128.9745       7.1786       0.0025     124.2235       0.2153       3.6047       2.7182      16.1878      15.5300      14.8992      13.8827      13.4579      16.8123      83.4375
    4742.0       6.1250      -0.0433       5.0000     129.5543       7.1562       0.0023     124.2950       0.2256       3.5405       2.7214      13.8496      13.1075      12.4981      11.7212      11.4266      17.7315      83.1250
    4741.5       6.1250      -0.0404       5.0000     129.7628       7.1786      -0.0007     124.3674       0.2036       3.4444       2.7166      18.3137      17.4537      16.3883      15.7705      15.3995      20.4497      83.1250
    4741.0       6.1250      -0.0330       5.0000     118.6035       7.2009      -0.0035     124.4406       0.1727       3.3769       2.7045      23.5381      22.5406      21.9459      20.7686      20.5120      24.0927      83.3750
    4740.5       6.1250      -0.0268       5.0000     112.5390       7.1786      -0.0077     124.5129       0.1164       3.3830       2.6942      30.4533      30.4709      29.5157      27.9960      27.5812      30.8249      83.3125
    4740.0       6.1250      -0.0274       5.0000     104.6132       7.1786      -0.0084     124.5853       0.1175       3.3755       2.6953      34.9647      35.1944      34.6936      33.7225      33.3422      34.1020      84.0625
    4739.5       6.1250      -0.0326       5.0000     109.2774       7.1786      -0.0063     124.6576       0.1336       3.3300       2.7038      41.9874      42.6960      43.6699      41.9784      41.9351      32.8276      83.9375
    4739.0       6.1250      -0.0360       5.0000     105.4288       7.1897      -0.0036     124.7304       0.1392       3.2670       2.7093      36.9765      36.7399      37.2441      36.0867      35.4959      30.6223      84.0625
    4738.5       6.1250      -0.0365       5.0000     110.8518       7.2232      -0.0001     124.8045       0.1376       3.2180       2.7102      34.4383      34.1847      34.1379      33.3770      33.3208      29.1499      83.3125
    4738.0       6.1250      -0.0291       5.0000     113.5800       7.2344       0.0013     124.8791       0.1319       3.2548       2.6980      35.6274      35.5838      35.3385      34.2434      34.3242      25.9405      83.1250
    4737.5       6.1250      -0.0230       5.0000     125.9960       7.2456       0.0021     124.9541       0.1459       3.3487       2.6880      32.8644      32.1387      31.4170      30.8933      30.9068      21.5468      83.0625
    4737.0       6.1250      -0.0189       5.0000     131.2104       7.2902       0.0013     125.0308       0.2139       3.4867       2.6812      27.1910      26.2759      25.6805      25.7329      25.5669      18.5144      82.6875
    4736.5       6.1250      -0.0231       5.0000     136.9336       7.2902       0.0013     125.1076       0.2414       3.5499       2.6881      19.8553      18.8186      18.1399      17.7455      17.6906      15.4802      82.6250
    4736.0       6.1250      -0.0300       5.0000     143.1909       7.3349       0.0028     125.1861       0.2273       3.5506       2.6995      18.4844      17.4170      16.8203      16.1493      16.1657      14.6898      82.0625
