~VERSION INFORMATION
VERS.           2.0   :CWLS Log ASCII Standard - VERSION 2.0
WRAP.           NO    :One Line per depth step
PROD.  Schlumberger   :LAS Producer
PROG.  DLIS to ASCII 11C0-305                          :LAS Program name and version
CREA.        2004/05/20 01:33                          :LAS Creation date {YYYY/MM/DD hh:mm}
SOURCE.     AIT_TLD_MCFL_CNL_019PUP.DLIS               :DLIS File Name
FILE-ID.     AIT_TLD_MCFL_CNL_019PUP                   :File Identification Number
#--------------------------------------------------
~WELL INFORMATION
#MNEM.UNIT      DATA             DESCRIPTION
#---- ------ --------------   -----------------------------
STRT .F         5768.0       :START DEPTH     
STOP .F         4226.5       :STOP DEPTH     
STEP .F           -0.5       :STEP     
NULL .          -999.25      :NULL VALUE
COMP .        DEPARTMENT OF ENERGY                     :COMPANY
WELL .        48X - 28                                 :WELL
FLD  .        NAVAL PETROLEUM RESERVE # 3              :FIELD
LOC  .        490' FSL, 2449' FWL                      :LOCATION
CNTY .        NATRONA                                  :COUNTY
STAT .        WYOMING                                  :STATE
CTRY .                                                 :COUNTRY
API  .        49-025-23195                             :API NUMBER
UWI  .                                                 :UNIQUE WELL ID
DATE .        19-May-2004                              :LOG DATE {DD-MMM-YYYY}
SRVC .        Schlumberger                             :SERVICE COMPANY
LATI .DEG                                              :LATITUDE
LONG .DEG                                              :LONGITUDE
GDAT .                                                 :GeoDetic Datum
SECT .        28                                       :Section
RANG .        78W                                      :Range
TOWN .        39N                                      :Township
#-----------------------------------------------------------------------------
~PARAMETER INFORMATION
#MNEM.UNIT    VALUE                      DESCRIPTION
#---- -----   --------------------       ------------------------
RUN  .          1                        :RUN NUMBER
PDAT .        GROUND LEVEL               :Permanent Datum
EPD  .C3                                 :Elevation of Permanent Datum above Mean Sea Level
EPD  .C3                                 :Elevation of tool zero above Mean Sea Level
LMF  .          KELLY BUSHING            :Logging Measured From (Name of Logging Elevation Reference)
APD  .                                   :Elevation of Depth Reference (LMF) above Permanent Datum
#-----------------------------------------------------------------------------
~CURVE INFORMATION
#MNEM.UNIT   API CODE                                  DESCRIPTION
#---- -----  --------                                  -----------------------
DEPT .F                                                :DEPTH (BOREHOLE) {F10.1}
BS   .IN                                               :Bit Size {F13.4}
DPHZ .CFCF                                             :HRDD Standard Resolution Density Porosity {F13.4}
FCD  .IN                                               :Future Casing Diameter {F13.4}
GR   .GAPI                                             :Gamma-Ray {F13.4}
HCAL .IN                                               :HRCC Cal. Caliper {F13.4}
HDRA .G/C3                                             :HRDD Density Correction {F13.4}
ICV  .F3                                               :Integrated Cement Volume {F13.4}
NPOR .CFCF                                             :Enhanced Thermal Neutron Porosity {F13.4}
PEFZ .                                                 :HRDD Standard Resolution Formation Photoelectric Factor {F13.4}
RHOZ .G/C3                                             :HRDD Standard Resolution Formation Density {F13.4}
RLA1 .OHMM                                             :HRLT Borehole Corrected Resistivity 1 {F13.4}
RLA2 .OHMM                                             :HRLT Borehole Corrected Resistivity 2 {F13.4}
RLA3 .OHMM                                             :HRLT Borehole Corrected Resistivity 3 {F13.4}
RLA4 .OHMM                                             :HRLT Borehole Corrected Resistivity 4 {F13.4}
RLA5 .OHMM                                             :HRLT Borehole Corrected Resistivity 5 {F13.4}
RXOZ .OHMM                                             :MCFL Standard Resolution Invaded Zone Resistivity {F13.4}
SP   .MV                                               :Spontaneous Potential {F13.4}
#-----------------------------------------------------------------------------
# 
#     DEPT        BS           DPHZ         FCD          GR           HCAL         HDRA         ICV          NPOR         PEFZ         RHOZ         RLA1         RLA2         RLA3         RLA4         RLA5         RXOZ         SP
#
~A  
# ...
    4963.0       6.1250      -0.0301       5.0000     122.7764       7.7370      -0.0035      96.1904       0.1647       3.5573       2.6996      19.7922      18.9909      18.6932      18.3039      18.2508      23.1648      84.6250
    4962.5       6.1250      -0.0337       5.0000     126.5781       7.7370      -0.0040      96.2855       0.2080       3.5794       2.7057      18.3393      17.4129      17.2223      16.6372      16.7115      19.8075      84.7500
    4962.0       6.1250      -0.0378       5.0000     126.2352       7.7817      -0.0040      96.3825       0.2077       3.5869       2.7124      16.6910      15.6956      15.4461      14.9013      15.0954      18.4946      84.2500
    4961.5       6.1250      -0.0392       5.0000     121.2323       7.7705      -0.0037      96.4789       0.1975       3.5821       2.7147      14.8075      13.7636      13.4551      13.0231      13.2379      17.7580      84.6250
    4961.0       6.1250      -0.0374       5.0000     120.1421       7.7593      -0.0035      96.5749       0.1896       3.5535       2.7117      14.4532      13.4622      12.9959      12.6586      12.9443      18.7719      85.1250
    4960.5       6.1250      -0.0366       5.0000     126.2082       7.7929      -0.0025      96.6724       0.1985       3.5067       2.7105      15.2383      14.1864      13.8332      13.3394      13.6716      19.9774      85.2500
    4960.0       6.1250      -0.0336       5.0000     126.8310       7.7817       0.0042      96.7693       0.1808       3.4621       2.7055      15.5891      14.5398      14.0970      13.5875      13.9720      22.5050      85.8750
    4959.5       6.1250      -0.0239       5.0000     125.2981       7.7817       0.0023      96.8663       0.1842       3.5059       2.6895      18.2982      17.3921      16.8720      16.1841      16.7234      23.8190      85.8125
    4959.0       6.1250      -0.0191       5.0000     120.2749       7.7817       0.0014      96.9632       0.1799       3.5326       2.6816      17.0873      16.0309      15.6839      15.2258      15.5914      23.7269      85.8750
    4958.5       6.1250      -0.0174       5.0000     123.9399       7.7817      -0.0055      97.0602       0.1835       3.5535       2.6786      17.5281      16.5314      16.4095      15.6891      16.3019      22.4420      85.2500
    4958.0       6.1250      -0.0172       5.0000     119.8859       7.7817      -0.0062      97.1571       0.1833       3.5445       2.6785      17.8390      16.6340      16.5583      16.0447      16.6679      21.7852      85.1875
    4957.5       6.1250      -0.0135       5.0000     113.8372       7.7705      -0.0080      97.2536       0.1640       3.5428       2.6723      17.2709      16.0618      15.9612      15.5944      16.1572      22.6774      85.3125
    4957.0       6.1250      -0.0226       5.0000     108.2951       7.7817      -0.0048      97.3506       0.1690       3.4672       2.6874      18.1108      17.0432      16.8349      16.3940      17.0254      24.0815      85.1875
    4956.5       6.1250      -0.0370       5.0000     106.1117       7.7593       0.0010      97.4466       0.1701       3.4310       2.7111      19.5077      18.3420      18.0947      17.7455      18.4052      24.2010      84.9375
    4956.0       6.1250      -0.0458       5.0000     114.6632       7.7593       0.0041      97.5426       0.1786       3.4053       2.7255      18.5887      17.4513      17.2784      16.9729      17.6274      21.9618      84.3750
    4955.5       6.1250      -0.0470       5.0000     114.2914       7.7370       0.0039      97.6377       0.1978       3.4684       2.7276      17.0933      16.0921      15.8506      15.6807      16.3113      19.8595      84.0625
    4955.0       6.1250      -0.0344       5.0000     116.6387       7.7147      -0.0022      97.7318       0.2165       3.5535       2.7068      15.2534      14.2421      14.1517      13.8376      14.5062      18.4974      83.7500
    4954.5       6.1250      -0.0253       5.0000     114.3897       7.7035      -0.0041      97.8254       0.2022       3.6410       2.6918      14.8152      13.9103      13.7506      13.2240      13.9722      18.5389      84.0625
    4954.0       6.1250      -0.0194       5.0000     116.0130       7.6923       0.0059      97.9186       0.1935       3.6701       2.6821      15.3100      14.3358      14.2362      13.5875      14.3731      17.8682      84.0625
    4953.5       6.1250      -0.0153       5.0000     120.3356       7.6812       0.0062      98.0113       0.1945       3.7247       2.6753      15.0210      14.2896      13.8533      13.3267      14.0345      16.8536      84.1250
    4953.0       6.1250      -0.0105       5.0000     122.9587       7.6477       0.0043      98.1027       0.2013       3.7995       2.6673      13.6059      12.8677      12.4417      11.9387      12.5910      15.8466      84.1250
    4952.5       6.1250      -0.0076       5.0000     128.3817       7.6477      -0.0071      98.1940       0.2019       3.8311       2.6626      13.0435      12.3441      11.9134      11.4331      12.0412      15.4245      84.1250
    4952.0       6.1250      -0.0076       5.0000     129.1414       7.6253      -0.0068      98.2844       0.1980       3.7969       2.6626      13.9992      13.1884      12.7842      12.3000      12.9227      16.5481      84.0625
    4951.5       6.1250      -0.0163       5.0000     123.1358       7.5806      -0.0037      98.3729       0.2138       3.6864       2.6770      13.1526      12.3816      11.9969      11.5733      12.0980      17.2639      84.1250
    4951.0       6.1250      -0.0202       5.0000     116.7629       7.5583      -0.0032      98.4605       0.1984       3.6237       2.6833      13.7360      13.1717      12.5428      12.2945      12.7532      20.8485      83.8125
    4950.5       6.1250      -0.0252       5.0000     115.2263       7.5583      -0.0030      98.5481       0.1645       3.5452       2.6917      16.5511      15.8612      15.4345      15.1510      15.6592      23.2600      84.0625
    4950.0       6.1250      -0.0283       5.0000     112.1702       7.5248      -0.0032      98.6343       0.1542       3.4915       2.6968      20.5765      19.7056      19.5486      19.2939      19.6323      25.8018      84.3750
    4949.5       6.1250      -0.0336       5.0000     111.6601       7.4913      -0.0003      98.7192       0.1684       3.4679       2.7054      20.4213      19.4444      19.5365      19.2130      19.3479      24.4162      84.8125
    4949.0       6.1250      -0.0371       5.0000     109.5784       7.4690       0.0046      98.8032       0.1760       3.4691       2.7113      18.7181      18.0938      17.9801      17.9373      17.5364      22.2150      85.5000
    4948.5       6.1250      -0.0326       5.0000     118.5131       7.4019       0.0068      98.8844       0.1772       3.4948       2.7039      16.9381      16.2246      16.3681      16.4551      16.2216      21.7558      85.8125
    4948.0       6.1250      -0.0263       5.0000     121.6435       7.4019       0.0053      98.9656       0.1574       3.4637       2.6935      16.4607      15.7384      15.8544      15.6421      15.3785      22.4337      85.7500
    4947.5       6.1250      -0.0275       5.0000     127.0624       7.3573       0.0028      99.0451       0.1647       3.3975       2.6955      20.6141      19.8235      20.0712      19.7943      19.6171      22.0125      85.6250
    4947.0       6.1250      -0.0383       5.0000     134.3435       7.3349       0.0027      99.1236       0.1898       3.3399       2.7132      17.0084      16.2689      16.6219      16.3177      15.7183      18.2423      85.4375
    4946.5       6.1250      -0.0397       5.0000     139.5561       7.3126       0.0005      99.2012       0.2291       3.3498       2.7155      14.0812      13.6719      13.4887      13.0085      12.7601      16.1730      85.4375
    4946.0       6.1250      -0.0358       5.0000     138.5132       7.2791      -0.0010      99.2776       0.2085       3.4011       2.7091      13.0413      12.6891      12.2731      11.7720      11.5545      15.4529      85.4375
