~VERSION INFORMATION
VERS.           2.0   :CWLS Log ASCII Standard - VERSION 2.0
WRAP.           NO    :One Line per depth step
PROD.  Schlumberger   :LAS Producer
PROG.  DLIS to ASCII 11C0-305                          :LAS Program name and version
CREA.        2004/05/20 01:33                          :LAS Creation date {YYYY/MM/DD hh:mm}
SOURCE.     AIT_TLD_MCFL_CNL_019PUP.DLIS               :DLIS File Name
FILE-ID.     AIT_TLD_MCFL_CNL_019PUP                   :File Identification Number
#--------------------------------------------------
~WELL INFORMATION
#MNEM.UNIT      DATA             DESCRIPTION
#---- ------ --------------   -----------------------------
STRT .F         5768.0       :START DEPTH     
STOP .F         4226.5       :STOP DEPTH     
STEP .F           -0.5       :STEP     
NULL .          -999.25      :NULL VALUE
COMP .        DEPARTMENT OF ENERGY                     :COMPANY
WELL .        48X - 28                                 :WELL
FLD  .        NAVAL PETROLEUM RESERVE # 3              :FIELD
LOC  .        490' FSL, 2449' FWL                      :LOCATION
CNTY .        NATRONA                                  :COUNTY
STAT .        WYOMING                                  :STATE
CTRY .                                                 :COUNTRY
API  .        49-025-23195                             :API NUMBER
UWI  .                                                 :UNIQUE WELL ID
DATE .        19-May-2004                              :LOG DATE {DD-MMM-YYYY}
SRVC .        Schlumberger                             :SERVICE COMPANY
LATI .DEG                                              :LATITUDE
LONG .DEG                                              :LONGITUDE
GDAT .                                                 :GeoDetic Datum
SECT .        28                                       :Section
RANG .        78W                                      :Range
TOWN .        39N                                      :Township
#-----------------------------------------------------------------------------
~PARAMETER INFORMATION
#MNEM.UNIT    VALUE                      DESCRIPTION
#---- -----   --------------------       ------------------------
RUN  .          1                        :RUN NUMBER
PDAT .        GROUND LEVEL               :Permanent Datum
EPD  .C3                                 :Elevation of Permanent Datum above Mean Sea Level
EPD  .C3                                 :Elevation of tool zero above Mean Sea Level
LMF  .          KELLY BUSHING            :Logging Measured From (Name of Logging Elevation Reference)
APD  .                                   :Elevation of Depth Reference (LMF) above Permanent Datum
#-----------------------------------------------------------------------------
~CURVE INFORMATION
#MNEM.UNIT   API CODE                                  DESCRIPTION
#---- -----  --------                                  -----------------------
DEPT .F                                                :DEPTH (BOREHOLE) {F10.1}
BS   .IN                                               :Bit Size {F13.4}
DPHZ .CFCF                                             :HRDD Standard Resolution Density Porosity {F13.4}
FCD  .IN                                               :Future Casing Diameter {F13.4}
GR   .GAPI                                             :Gamma-Ray {F13.4}
HCAL .IN                                               :HRCC Cal. Caliper {F13.4}
HDRA .G/C3                                             :HRDD Density Correction {F13.4}
ICV  .F3                                               :Integrated Cement Volume {F13.4}
NPOR .CFCF                                             :Enhanced Thermal Neutron Porosity {F13.4}
PEFZ .                                                 :HRDD Standard Resolution Formation Photoelectric Factor {F13.4}
RHOZ .G/C3                                             :HRDD Standard Resolution Formation Density {F13.4}
RLA1 .OHMM                                             :HRLT Borehole Corrected Resistivity 1 {F13.4}
RLA2 .OHMM                                             :HRLT Borehole Corrected Resistivity 2 {F13.4}
RLA3 .OHMM                                             :HRLT Borehole Corrected Resistivity 3 {F13.4}
RLA4 .OHMM                                             :HRLT Borehole Corrected Resistivity 4 {F13.4}
RLA5 .OHMM                                             :HRLT Borehole Corrected Resistivity 5 {F13.4}
RXOZ .OHMM                                             :MCFL Standard Resolution Invaded Zone Resistivity {F13.4}
SP   .MV                                               :Spontaneous Potential {F13.4}
#-----------------------------------------------------------------------------
# 
#     DEPT        BS           DPHZ         FCD          GR           HCAL         HDRA         ICV          NPOR         PEFZ         RHOZ         RLA1         RLA2         RLA3         RLA4         RLA5         RXOZ         SP
#
~A  
# ...
    4455.5       6.1250       0.1568       5.0000      57.8826       6.1063      -0.0052     162.1343       0.2020       2.5434       2.3913       3.0663       3.4182       4.0071       4.6013       7.2049       4.3682     126.0625
    4455.0       6.1250       0.1745       5.0000      58.1400       6.1063      -0.0103     162.1678       0.1700       2.5004       2.3620       7.0841       8.0446       9.3073      10.5615      16.7626       3.0456     124.8125
    4454.5       6.1250       0.1986       5.0000      53.7599       6.0840      -0.0122     162.2006       0.2127       2.4798       2.3223       2.6239       2.8608       3.0291       3.3886       5.2033       2.4999     123.8125
    4454.0       6.1250       0.2109       5.0000      51.6741       6.0840      -0.0094     162.2334       0.2628       2.5096       2.3020       2.4813       2.6398       2.9699       3.2749       4.9979       2.5560     123.2500
    4453.5       6.1250       0.2126       5.0000      50.4818       6.0840      -0.0055     162.2661       0.2512       2.5539       2.2993       2.6695       2.7477       3.1058       3.3916       5.1389       2.6390     122.8125
    4453.0       6.1250       0.2112       5.0000      48.3960       6.0952      -0.0023     162.2993       0.2305       2.6002       2.3014       2.5741       2.8284       3.0694       3.3712       5.0974       2.5873     122.8750
    4452.5       6.1250       0.2136       5.0000      41.8335       6.0840      -0.0028     162.3320       0.2281       2.6258       2.2976       2.5755       2.9705       3.1463       3.4388       5.2107       2.6434     123.5000
    4452.0       6.1250       0.2133       5.0000      41.8335       6.0840      -0.0045     162.3648       0.2363       2.6164       2.2981       2.4591       2.8706       3.0961       3.3592       5.0887       2.6606     124.3125
    4451.5       6.1250       0.2095       5.0000      39.9563       6.0840      -0.0059     162.3975       0.2066       2.5669       2.3044       2.6153       2.9417       3.4360       3.7081       5.6353       2.7993     124.9375
    4451.0       6.1250       0.2033       5.0000      42.3474       6.0840      -0.0059     162.4303       0.2174       2.5181       2.3146       2.6415       2.9417       3.4862       3.8362       5.6534       2.7985     125.2500
    4450.5       6.1250       0.1962       5.0000      35.8978       6.0617      -0.0054     162.4623       0.2229       2.4918       2.3262       2.5849       2.8819       3.3878       3.8940       5.5766       2.9434     125.3750
    4450.0       6.1250       0.1811       5.0000      32.9777       6.0617      -0.0016     162.4944       0.1857       2.4663       2.3513       2.5921       2.8823       3.4171       3.9918       5.6355       3.3004     124.3750
    4449.5       6.1250       0.1688       5.0000      26.3060       6.0617       0.0013     162.5264       0.1654       2.4359       2.3715       3.0093       3.3214       4.0419       4.6654       6.6189       3.5164     124.2500
    4449.0       6.1250       0.1698       5.0000      25.6573       6.0393       0.0009     162.5577       0.1698       2.4145       2.3699       3.3709       3.7826       4.5160       5.1486       7.3362       3.3603     124.6250
    4448.5       6.1250       0.1775       5.0000      25.5717       6.0617      -0.0018     162.5897       0.1814       2.3764       2.3571       2.9577       3.3985       3.8712       4.3755       6.2950       3.1555     125.0000
    4448.0       6.1250       0.1850       5.0000      26.1947       6.0617      -0.0036     162.6217       0.1768       2.3275       2.3447       2.7788       3.1768       3.5689       3.9915       5.9283       3.1807     125.3750
    4447.5       6.1250       0.1823       5.0000      25.1518       6.0617      -0.0013     162.6537       0.1462       2.2448       2.3491       3.1936       3.5246       3.9457       4.4218       6.6694       2.8967     124.6250
    4447.0       6.1250       0.1879       5.0000      23.2362       6.0393      -0.0013     162.6850       0.1847       2.2052       2.3400       3.1693       3.3270       3.6508       4.1340       6.2497       2.5813     124.2500
    4446.5       6.1250       0.1910       5.0000      23.0276       6.0840      -0.0021     162.7178       0.2036       2.2354       2.3349       2.4080       2.5398       2.7198       3.1035       4.6393       2.4691     123.5625
    4446.0       6.1250       0.1824       5.0000      21.3916       6.0393      -0.0023     162.7491       0.1854       2.2928       2.3490       2.5392       2.7168       3.0105       3.4666       5.1804       3.1901     123.4375
    4445.5       6.1250       0.1704       5.0000      27.9815       6.0840      -0.0023     162.7818       0.1835       2.3458       2.3688       2.9049       3.0932       3.4744       3.9621       5.9382       3.8418     123.8750
    4445.0       6.1250       0.1660       5.0000      35.1980       6.0840      -0.0020     162.8146       0.1826       2.3560       2.3761       4.0745       4.4320       5.2666       5.9461       8.9920       3.9663     124.2500
    4444.5       6.1250       0.1735       5.0000      40.1713       6.0840      -0.0018     162.8474       0.1695       2.3387       2.3637       3.2714       3.7282       4.2881       4.7328       7.0551       3.2581     124.6875
    4444.0       6.1250       0.1832       5.0000      40.1713       6.0617      -0.0006     162.8794       0.2026       2.3101       2.3477       2.7530       3.1181       3.5824       3.9527       5.8421       3.2558     125.0000
    4443.5       6.1250       0.1989       5.0000      36.3446       6.0505      -0.0024     162.9110       0.2043       2.2690       2.3219       2.9737       3.3055       3.7893       4.1637       6.0833       2.5590     125.0000
    4443.0       6.1250       0.2155       5.0000      36.3446       6.0840      -0.0049     162.9438       0.2157       2.2148       2.2944       2.9098       3.1553       3.5255       3.8586       5.5681       2.1414     125.3125
    4442.5       6.1250       0.2277       5.0000      30.4779       6.0617      -0.0060     162.9758       0.2293       2.1653       2.2743       1.8509       2.0228       2.2624       2.4650       3.5199       1.7871     124.8750
    4442.0       6.1250       0.2289       5.0000      31.2596       6.0617      -0.0038     163.0079       0.2282       2.1790       2.2724       1.8372       2.0556       2.2666       2.4743       3.5266       1.9309     124.8750
    4441.5       6.1250       0.2235       5.0000      29.7996       6.0617      -0.0013     163.0399       0.2479       2.2810       2.2812       1.8115       2.0272       2.2532       2.4520       3.4820       2.1184     124.8750
    4441.0       6.1250       0.2157       5.0000      33.3641       6.0617      -0.0003     163.0719       0.2415       2.4300       2.2941       2.1303       2.3650       2.6914       2.9011       4.1299       2.5159     125.2500
    4440.5       6.1250       0.2074       5.0000      33.1556       6.0617       0.0005     163.1039       0.2347       2.5701       2.3079       2.4308       2.8085       3.1970       3.4845       4.9223       2.6807     125.8750
    4440.0       6.1250       0.2020       5.0000      34.1732       6.0840       0.0009     163.1367       0.2200       2.6498       2.3167       2.5049       2.8910       3.2662       3.6429       5.1462       2.8590     125.3750
    4439.5       6.1250       0.1991       5.0000      33.3467       6.0617       0.0008     163.1687       0.2062       2.6646       2.3215       2.4056       2.7307       3.1941       3.5987       5.0905       2.8128     125.5625
    4439.0       6.1250       0.1990       5.0000      36.3618       6.0617      -0.0013     163.2008       0.2133       2.6262       2.3217       2.5905       2.8787       3.4695       3.9537       5.6133       3.1679     124.6250
    4438.5       6.1250       0.1970       5.0000      39.3071       6.0617      -0.0029     163.2328       0.2047       2.5798       2.3249       2.5949       2.8167       3.3869       3.9267       5.5503       3.2786     124.1250
