~VERSION INFORMATION
VERS.           2.0   :CWLS Log ASCII Standard - VERSION 2.0
WRAP.           NO    :One Line per depth step
PROD.  Schlumberger   :LAS Producer
PROG.  DLIS to ASCII 11C0-305                          :LAS Program name and version
CREA.        2004/05/20 01:33                          :LAS Creation date {YYYY/MM/DD hh:mm}
SOURCE.     AIT_TLD_MCFL_CNL_019PUP.DLIS               :DLIS File Name
FILE-ID.     AIT_TLD_MCFL_CNL_019PUP                   :File Identification Number
#--------------------------------------------------
~WELL INFORMATION
#MNEM.UNIT      DATA             DESCRIPTION
#---- ------ --------------   -----------------------------
STRT .F         5768.0       :START DEPTH     
STOP .F         4226.5       :STOP DEPTH     
STEP .F           -0.5       :STEP     
NULL .          -999.25      :NULL VALUE
COMP .        DEPARTMENT OF ENERGY                     :COMPANY
WELL .        48X - 28                                 :WELL
FLD  .        NAVAL PETROLEUM RESERVE # 3              :FIELD
LOC  .        490' FSL, 2449' FWL                      :LOCATION
CNTY .        NATRONA                                  :COUNTY
STAT .        WYOMING                                  :STATE
CTRY .                                                 :COUNTRY
API  .        49-025-23195                             :API NUMBER
UWI  .                                                 :UNIQUE WELL ID
DATE .        19-May-2004                              :LOG DATE {DD-MMM-YYYY}
SRVC .        Schlumberger                             :SERVICE COMPANY
LATI .DEG                                              :LATITUDE
LONG .DEG                                              :LONGITUDE
GDAT .                                                 :GeoDetic Datum
SECT .        28                                       :Section
RANG .        78W                                      :Range
TOWN .        39N                                      :Township
#-----------------------------------------------------------------------------
~PARAMETER INFORMATION
#MNEM.UNIT    VALUE                      DESCRIPTION
#---- -----   --------------------       ------------------------
RUN  .          1                        :RUN NUMBER
PDAT .        GROUND LEVEL               :Permanent Datum
EPD  .C3                                 :Elevation of Permanent Datum above Mean Sea Level
EPD  .C3                                 :Elevation of tool zero above Mean Sea Level
LMF  .          KELLY BUSHING            :Logging Measured From (Name of Logging Elevation Reference)
APD  .                                   :Elevation of Depth Reference (LMF) above Permanent Datum
#-----------------------------------------------------------------------------
~CURVE INFORMATION
#MNEM.UNIT   API CODE                                  DESCRIPTION
#---- -----  --------                                  -----------------------
DEPT .F                                                :DEPTH (BOREHOLE) {F10.1}
BS   .IN                                               :Bit Size {F13.4}
DPHZ .CFCF                                             :HRDD Standard Resolution Density Porosity {F13.4}
FCD  .IN                                               :Future Casing Diameter {F13.4}
GR   .GAPI                                             :Gamma-Ray {F13.4}
HCAL .IN                                               :HRCC Cal. Caliper {F13.4}
HDRA .G/C3                                             :HRDD Density Correction {F13.4}
ICV  .F3                                               :Integrated Cement Volume {F13.4}
NPOR .CFCF                                             :Enhanced Thermal Neutron Porosity {F13.4}
PEFZ .                                                 :HRDD Standard Resolution Formation Photoelectric Factor {F13.4}
RHOZ .G/C3                                             :HRDD Standard Resolution Formation Density {F13.4}
RLA1 .OHMM                                             :HRLT Borehole Corrected Resistivity 1 {F13.4}
RLA2 .OHMM                                             :HRLT Borehole Corrected Resistivity 2 {F13.4}
RLA3 .OHMM                                             :HRLT Borehole Corrected Resistivity 3 {F13.4}
RLA4 .OHMM                                             :HRLT Borehole Corrected Resistivity 4 {F13.4}
RLA5 .OHMM                                             :HRLT Borehole Corrected Resistivity 5 {F13.4}
RXOZ .OHMM                                             :MCFL Standard Resolution Invaded Zone Resistivity {F13.4}
SP   .MV                                               :Spontaneous Potential {F13.4}
#-----------------------------------------------------------------------------
# 
#     DEPT        BS           DPHZ         FCD          GR           HCAL         HDRA         ICV          NPOR         PEFZ         RHOZ         RLA1         RLA2         RLA3         RLA4         RLA5         RXOZ         SP
#
~A  
# ...
    4543.0       6.1250      -0.0058       5.0000     111.6658       7.0110      -0.0051     149.8075       0.1328       3.5205       2.6596      16.6722      17.5683      17.3153      17.0784      17.8306      34.2959      81.8125
    4542.5       6.1250      -0.0084       5.0000     121.4847       7.0222      -0.0026     149.8738       0.1390       3.5239       2.6639      18.7848      19.9314      19.6189      19.2940      20.2064      31.0824      82.0000
    4542.0       6.1250      -0.0073       5.0000     123.0505       7.0445      -0.0027     149.9410       0.1799       3.5374       2.6621      17.3388      17.9795      18.1979      17.7300      18.6236      26.8361      82.0000
    4541.5       6.1250      -0.0022       5.0000     124.2079       7.0222      -0.0027     150.0073       0.1735       3.5556       2.6537      15.5714      15.8795      16.4289      15.9566      16.7912      25.4241      82.1250
    4541.0       6.1250       0.0045       5.0000     120.4535       7.0222      -0.0004     150.0736       0.1442       3.5517       2.6426      15.7120      15.9277      16.4746      15.9974      17.0229      27.3848      82.3750
    4540.5       6.1250       0.0105       5.0000     114.7303       7.0222      -0.0016     150.1399       0.1378       3.5388       2.6327      17.3712      17.3362      17.8803      17.6482      18.8159      32.0591      83.1250
    4540.0       6.1250       0.0123       5.0000     112.0188       7.0222      -0.0039     150.2062       0.1272       3.4969       2.6297      17.3908      17.2963      17.6441      17.6698      18.8747      37.1500      83.1875
    4539.5       6.1250       0.0113       5.0000     103.5350       7.3349      -0.0086     150.2847       0.1036       3.4480       2.6313      18.8160      19.0525      19.4602      19.6204      21.0621      41.2977      83.3750
    4539.0       6.1250       0.0122       5.0000     102.8952       7.1562      -0.0088     150.3562       0.1150       3.4299       2.6299      22.4157      22.8482      23.5033      23.5268      25.2929      44.9059      82.8125
    4538.5       6.1250       0.0086       5.0000     102.8203       7.2902      -0.0065     150.4329       0.1297       3.4187       2.6358      23.5723      24.9171      25.8332      25.5183      27.2264      44.9705      82.8750
    4538.0       6.1250       0.0011       5.0000     108.5926       7.2456      -0.0073     150.5079       0.1373       3.4478       2.6482      19.4318      20.6437      21.6646      21.3033      22.8718      41.5651      83.0000
    4537.5       6.1250      -0.0145       5.0000     111.5771       7.1786      -0.0063     150.5803       0.1570       3.4711       2.6739      17.1346      18.1698      18.9514      18.5236      19.9845      37.9132      83.1875
    4537.0       6.1250      -0.0192       5.0000     112.0692       7.0669      -0.0053     150.6483       0.1564       3.4979       2.6817      17.0523      17.7112      18.2002      17.9416      19.4944      34.8700      83.1250
    4536.5       6.1250      -0.0168       5.0000     108.7320       7.0669      -0.0022     150.7163       0.1548       3.4827       2.6778      18.7759      19.3700      19.8397      19.3489      20.9940      32.4761      82.6875
    4536.0       6.1250      -0.0088       5.0000     111.1566       7.1115      -0.0003     150.7860       0.1686       3.4275       2.6645      16.1586      16.7554      16.7766      16.5954      17.8576      31.3713      81.9375
    4535.5       6.1250      -0.0024       5.0000     107.4023       7.3573      -0.0017     150.8654       0.1692       3.3920       2.6540      16.0697      16.5630      16.5602      16.4504      17.7909      31.9657      81.3750
    4535.0       6.1250       0.0031       5.0000     110.0096       7.2344      -0.0017     150.9400       0.1373       3.3642       2.6449      16.3274      16.5319      16.7300      16.8484      18.0625      34.1989      81.2500
    4534.5       6.1250      -0.0045       5.0000     105.4348       7.1786       0.0050     151.0123       0.1294       3.3544       2.6575      15.5709      15.8776      16.6676      16.3820      17.5496      37.4523      82.0000
    4534.0       6.1250      -0.0146       5.0000     102.5147       6.9999       0.0097     151.0778       0.1320       3.3585       2.6742      17.0234      17.3726      18.2887      18.4279      19.5643      41.2530      82.3750
    4533.5       6.1250      -0.0156       5.0000      97.2340       7.0334       0.0101     151.1445       0.1229       3.3773       2.6757      22.8087      23.3624      24.6677      25.2608      26.1905      41.2522      83.0625
    4533.0       6.1250      -0.0056       5.0000      99.5284       7.0445       0.0037     151.2117       0.1191       3.3964       2.6592      25.2540      25.7349      27.2459      27.7755      28.3751      33.7940      83.0000
    4532.5       6.1250       0.0004       5.0000     114.0570       7.0445       0.0033     151.2788       0.1242       3.3899       2.6494      23.7168      24.6504      25.8970      26.4713      26.6471      24.0497      82.7500
    4532.0       6.1250      -0.0103       5.0000     127.3677       7.0669       0.0131     151.3468       0.1440       3.4188       2.6669      20.7750      21.4495      22.7530      23.1056      23.3352      19.0853      82.7500
    4531.5       6.1250      -0.0185       5.0000     144.1947       7.0892       0.0229     151.4157       0.1721       3.4753       2.6805      19.2869      19.5212      20.5124      20.3089      20.4965      17.2172      82.6875
    4531.0       6.1250      -0.0262       5.0000     152.8179       7.1115       0.0235     151.4854       0.2494       3.5502       2.6933      16.7629      16.3932      17.5014      17.0277      17.2325      18.1932      82.8125
    4530.5       6.1250      -0.0229       5.0000     159.9095       7.1339       0.0150     151.5560       0.2685       3.5740       2.6878      12.7768      12.2474      12.6632      12.2717      12.4274      14.6885      83.5000
    4530.0       6.1250      -0.0142       5.0000     155.8018       7.1339       0.0032     151.6266       0.2684       3.5875       2.6734      10.1515       9.6547       9.7110       9.3386       9.5957      12.9594      84.1250
    4529.5       6.1250      -0.0022       5.0000     152.2560       7.1339      -0.0029     151.6973       0.2952       3.5342       2.6537       9.3679       9.0311       8.8331       8.6216       8.7724      13.5114      84.6250
    4529.0       6.1250       0.0047       5.0000     135.9421       7.1562      -0.0049     151.7687       0.2862       3.4343       2.6423       9.2688       9.0632       8.9643       8.6802       8.9235      18.0593      85.0625
    4528.5       6.1250       0.0128       5.0000     118.0084       7.0892      -0.0052     151.8376       0.1627       3.3297       2.6288      10.4648      10.5801      10.3616      10.1888      10.4654      25.6958      85.5625
    4528.0       6.1250       0.0155       5.0000      93.6151       7.0445      -0.0022     151.9048       0.1108       3.2541       2.6244      17.8094      18.8230      18.7276      18.1256      19.0049      32.3905      85.2500
    4527.5       6.1250       0.0148       5.0000      85.3172       6.9999       0.0015     151.9702       0.1020       3.2314       2.6255      18.1261      19.9272      19.4781      19.5325      20.1591      32.0421      85.0625
    4527.0       6.1250       0.0099       5.0000      78.2386       6.9775       0.0028     152.0348       0.0995       3.1816       2.6337      18.3578      20.4358      20.9424      20.8614      21.7117      30.9736      85.1875
    4526.5       6.1250       0.0147       5.0000      77.0462       6.9775      -0.0127     152.0994       0.0987       3.1417       2.6258      18.2211      20.1488      21.5834      21.5955      22.6689      32.6245      86.5625
    4526.0       6.1250       0.0182       5.0000      73.7090       6.9552      -0.0212     152.1631       0.0931       3.1111       2.6200      19.3339      20.7426      22.9014      23.0216      24.3817      34.2845      87.8125
