~VERSION INFORMATION
VERS.           2.0   :CWLS Log ASCII Standard - VERSION 2.0
WRAP.           NO    :One Line per depth step
PROD.  Schlumberger   :LAS Producer
PROG.  DLIS to ASCII 11C0-305                          :LAS Program name and version
CREA.        2004/05/20 01:33                          :LAS Creation date {YYYY/MM/DD hh:mm}
SOURCE.     AIT_TLD_MCFL_CNL_019PUP.DLIS               :DLIS File Name
FILE-ID.     AIT_TLD_MCFL_CNL_019PUP                   :File Identification Number
#--------------------------------------------------
~WELL INFORMATION
#MNEM.UNIT      DATA             DESCRIPTION
#---- ------ --------------   -----------------------------
STRT .F         5768.0       :START DEPTH     
STOP .F         4226.5       :STOP DEPTH     
STEP .F           -0.5       :STEP     
NULL .          -999.25      :NULL VALUE
COMP .        DEPARTMENT OF ENERGY                     :COMPANY
WELL .        48X - 28                                 :WELL
FLD  .        NAVAL PETROLEUM RESERVE # 3              :FIELD
LOC  .        490' FSL, 2449' FWL                      :LOCATION
CNTY .        NATRONA                                  :COUNTY
STAT .        WYOMING                                  :STATE
CTRY .                                                 :COUNTRY
API  .        49-025-23195                             :API NUMBER
UWI  .                                                 :UNIQUE WELL ID
DATE .        19-May-2004                              :LOG DATE {DD-MMM-YYYY}
SRVC .        Schlumberger                             :SERVICE COMPANY
LATI .DEG                                              :LATITUDE
LONG .DEG                                              :LONGITUDE
GDAT .                                                 :GeoDetic Datum
SECT .        28                                       :Section
RANG .        78W                                      :Range
TOWN .        39N                                      :Township
#-----------------------------------------------------------------------------
~PARAMETER INFORMATION
#MNEM.UNIT    VALUE                      DESCRIPTION
#---- -----   --------------------       ------------------------
RUN  .          1                        :RUN NUMBER
PDAT .        GROUND LEVEL               :Permanent Datum
EPD  .C3                                 :Elevation of Permanent Datum above Mean Sea Level
EPD  .C3                                 :Elevation of tool zero above Mean Sea Level
LMF  .          KELLY BUSHING            :Logging Measured From (Name of Logging Elevation Reference)
APD  .                                   :Elevation of Depth Reference (LMF) above Permanent Datum
#-----------------------------------------------------------------------------
~CURVE INFORMATION
#MNEM.UNIT   API CODE                                  DESCRIPTION
#---- -----  --------                                  -----------------------
DEPT .F                                                :DEPTH (BOREHOLE) {F10.1}
BS   .IN                                               :Bit Size {F13.4}
DPHZ .CFCF                                             :HRDD Standard Resolution Density Porosity {F13.4}
FCD  .IN                                               :Future Casing Diameter {F13.4}
GR   .GAPI                                             :Gamma-Ray {F13.4}
HCAL .IN                                               :HRCC Cal. Caliper {F13.4}
HDRA .G/C3                                             :HRDD Density Correction {F13.4}
ICV  .F3                                               :Integrated Cement Volume {F13.4}
NPOR .CFCF                                             :Enhanced Thermal Neutron Porosity {F13.4}
PEFZ .                                                 :HRDD Standard Resolution Formation Photoelectric Factor {F13.4}
RHOZ .G/C3                                             :HRDD Standard Resolution Formation Density {F13.4}
RLA1 .OHMM                                             :HRLT Borehole Corrected Resistivity 1 {F13.4}
RLA2 .OHMM                                             :HRLT Borehole Corrected Resistivity 2 {F13.4}
RLA3 .OHMM                                             :HRLT Borehole Corrected Resistivity 3 {F13.4}
RLA4 .OHMM                                             :HRLT Borehole Corrected Resistivity 4 {F13.4}
RLA5 .OHMM                                             :HRLT Borehole Corrected Resistivity 5 {F13.4}
RXOZ .OHMM                                             :MCFL Standard Resolution Invaded Zone Resistivity {F13.4}
SP   .MV                                               :Spontaneous Potential {F13.4}
#-----------------------------------------------------------------------------
# 
#     DEPT        BS           DPHZ         FCD          GR           HCAL         HDRA         ICV          NPOR         PEFZ         RHOZ         RLA1         RLA2         RLA3         RLA4         RLA5         RXOZ         SP
#
~A  
# ...
    4858.0       6.1250      -0.0149       5.0000      83.2421       6.8435      -0.0038     109.9526       0.0901       3.3786       2.6746      30.7151      29.7718      29.5939      29.2470      29.2414      37.7670      86.9375
    4857.5       6.1250      -0.0202       5.0000      82.2882       6.8435      -0.0010     110.0121       0.0931       3.2632       2.6834      32.8003      31.8002      31.5327      31.1051      31.2414      38.3176      86.0000
    4857.0       6.1250      -0.0146       5.0000      83.6486       6.8547      -0.0023     110.0721       0.0953       3.2330       2.6741      34.4980      33.1786      33.1710      32.9821      33.1211      33.2467      85.5625
    4856.5       6.1250      -0.0078       5.0000      90.2773       6.8435      -0.0049     110.1316       0.1116       3.2670       2.6628      27.8507      26.9182      26.9503      26.8659      26.6133      28.4041      85.3125
    4856.0       6.1250      -0.0040       5.0000      92.8709       6.8658      -0.0077     110.1920       0.1286       3.3196       2.6566      22.1794      21.5235      21.3034      20.7812      20.9604      26.2601      86.0000
    4855.5       6.1250      -0.0106       5.0000      94.5395       6.8882       0.0033     110.2532       0.1300       3.3027       2.6676      21.9484      21.5381      21.3043      20.4732      20.8053      27.6017      86.0000
    4855.0       6.1250      -0.0151       5.0000      95.4933       6.8993       0.0143     110.3148       0.1102       3.2909       2.6749      24.3583      23.8734      23.4834      22.6418      23.1473      30.1392      85.8125
    4854.5       6.1250      -0.0175       5.0000     102.9154       6.9105       0.0208     110.3769       0.1366       3.3106       2.6789      25.3594      24.5745      24.1839      23.3446      23.7780      26.9993      85.4375
    4854.0       6.1250      -0.0161       5.0000     113.3441       6.9105       0.0091     110.4389       0.1686       3.3807       2.6765      22.9511      22.3638      21.8944      21.2032      21.3516      20.8762      84.8750
    4853.5       6.1250      -0.0146       5.0000     119.1104       6.9105      -0.0028     110.5010       0.2077       3.4433       2.6741      17.0811      16.4824      16.1855      15.4366      15.6544      19.1159      84.5000
    4853.0       6.1250      -0.0126       5.0000     117.8819       6.9105      -0.0102     110.5630       0.1621       3.4647       2.6708      15.1564      14.3599      14.0700      13.3906      13.5593      20.5662      84.5000
    4852.5       6.1250      -0.0142       5.0000     110.1787       6.9552      -0.0087     110.6268       0.1469       3.4262       2.6734      18.0681      17.4138      16.3763      16.0143      16.1660      23.6452      84.2500
    4852.0       6.1250      -0.0247       5.0000     106.0071       6.9328      -0.0041     110.6897       0.1329       3.3556       2.6907      21.1776      20.1947      19.8830      19.2773      19.3590      26.5236      84.8125
    4851.5       6.1250      -0.0351       5.0000     104.3397       6.9552       0.0011     110.7534       0.1148       3.3082       2.7078      22.2295      21.3633      20.7617      20.1086      20.1050      28.0842      84.6250
    4851.0       6.1250      -0.0359       5.0000     114.1287       6.9663       0.0018     110.8176       0.1553       3.3471       2.7092      26.7646      25.6920      25.2330      24.5243      24.5076      20.2987      84.9375
    4850.5       6.1250      -0.0219       5.0000     122.0726       6.9999      -0.0033     110.8830       0.2145       3.4783       2.6861      19.5777      18.8956      18.4656      18.5208      17.4937      17.4484      84.5625
    4850.0       6.1250      -0.0174       5.0000     132.6718       7.0222      -0.0056     110.9493       0.2050       3.5474       2.6787      11.9527      11.0722      11.1948      10.6452      10.7537      17.0720      84.3750
    4849.5       6.1250      -0.0202       5.0000     131.2292       7.0445      -0.0047     111.0165       0.1503       3.5670       2.6834      15.8052      14.7862      14.5341      13.9244      13.9272      21.5216      83.5625
    4849.0       6.1250      -0.0263       5.0000     127.8739       7.0445      -0.0009     111.0836       0.1554       3.5437       2.6934      21.4675      20.0680      19.8508      18.9235      18.9792      18.8240      83.4375
    4848.5       6.1250      -0.0312       5.0000     130.6146       7.0669       0.0038     111.1517       0.2130       3.5625       2.7015      19.3171      18.3343      17.9844      17.9285      17.3848      16.3169      83.4375
    4848.0       6.1250      -0.0350       5.0000     133.7258       7.1004       0.0067     111.2210       0.2131       3.5894       2.7077      13.5021      13.1044      12.8426      12.0139      12.0176      14.6671      83.5000
    4847.5       6.1250      -0.0408       5.0000     135.1733       7.1115       0.0080     111.2907       0.2076       3.5445       2.7173      13.3189      12.7470      12.4842      12.0778      12.0963      15.5608      83.0625
    4847.0       6.1250      -0.0417       5.0000     135.5613       7.1339       0.0061     111.3613       0.2005       3.5032       2.7189      13.1583      12.3741      12.2407      11.7542      11.7915      16.2733      82.3750
    4846.5       6.1250      -0.0402       5.0000     124.3422       7.1450       0.0048     111.4324       0.1969       3.4717       2.7163      14.9537      14.0820      14.1238      13.4949      13.6069      17.4086      81.7500
    4846.0       6.1250      -0.0342       5.0000     127.2747       7.1562       0.0030     111.5038       0.1806       3.4760       2.7064      16.0763      15.6588      15.0597      14.6250      14.6312      18.7558      81.3750
    4845.5       6.1250      -0.0268       5.0000     117.5965       7.1562       0.0003     111.5753       0.1682       3.4899       2.6942      15.9777      15.5807      15.0921      14.6187      14.7513      20.8529      81.0000
    4845.0       6.1250      -0.0232       5.0000     123.7966       7.1562      -0.0029     111.6468       0.1624       3.4994       2.6883      17.7736      17.1571      16.9021      16.3881      16.5587      20.2165      81.7500
    4844.5       6.1250      -0.0260       5.0000     118.5823       7.1786      -0.0041     111.7191       0.1745       3.5298       2.6929      17.8740      17.0593      16.9696      16.5307      16.6457      19.0939      82.1250
    4844.0       6.1250      -0.0285       5.0000     112.6269       7.1562      -0.0048     111.7906       0.1907       3.5356       2.6970      15.8923      14.9731      14.9302      14.4141      14.6668      17.1103      82.3125
    4843.5       6.1250      -0.0289       5.0000     117.6459       7.1786      -0.0041     111.8630       0.2040       3.5170       2.6977      17.2200      16.2423      15.9290      15.5102      15.8833      18.3590      82.1875
    4843.0       6.1250      -0.0265       5.0000     118.2585       7.1562      -0.0030     111.9345       0.1996       3.5072       2.6937      15.0995      13.9213      13.6249      13.2709      13.5990      19.3115      82.0000
    4842.5       6.1250      -0.0331       5.0000     124.2976       7.1786       0.0007     112.0068       0.1854       3.5196       2.7047      17.4810      16.2351      15.8443      15.5307      15.9690      21.8136      82.0000
    4842.0       6.1250      -0.0417       5.0000     116.1785       7.1562       0.0040     112.0783       0.1651       3.5927       2.7187      17.4917      16.2229      15.8190      15.6255      15.9335      23.2748      82.1875
    4841.5       6.1250      -0.0496       5.0000     120.1546       7.1562       0.0082     112.1498       0.1608       3.6337       2.7319      20.9287      19.6803      19.1625      18.6669      19.1392      23.5605      81.9375
    4841.0       6.1250      -0.0421       5.0000     127.6936       7.1786       0.0070     112.2221       0.1811       3.6081       2.7195      22.5559      20.9946      20.7541      20.2119      20.5738      21.8202      82.6250
