~VERSION INFORMATION
VERS.           2.0   :CWLS Log ASCII Standard - VERSION 2.0
WRAP.           NO    :One Line per depth step
PROD.  Schlumberger   :LAS Producer
PROG.  DLIS to ASCII 11C0-305                          :LAS Program name and version
CREA.        2004/05/20 01:33                          :LAS Creation date {YYYY/MM/DD hh:mm}
SOURCE.     AIT_TLD_MCFL_CNL_019PUP.DLIS               :DLIS File Name
FILE-ID.     AIT_TLD_MCFL_CNL_019PUP                   :File Identification Number
#--------------------------------------------------
~WELL INFORMATION
#MNEM.UNIT      DATA             DESCRIPTION
#---- ------ --------------   -----------------------------
STRT .F         5768.0       :START DEPTH     
STOP .F         4226.5       :STOP DEPTH     
STEP .F           -0.5       :STEP     
NULL .          -999.25      :NULL VALUE
COMP .        DEPARTMENT OF ENERGY                     :COMPANY
WELL .        48X - 28                                 :WELL
FLD  .        NAVAL PETROLEUM RESERVE # 3              :FIELD
LOC  .        490' FSL, 2449' FWL                      :LOCATION
CNTY .        NATRONA                                  :COUNTY
STAT .        WYOMING                                  :STATE
CTRY .                                                 :COUNTRY
API  .        49-025-23195                             :API NUMBER
UWI  .                                                 :UNIQUE WELL ID
DATE .        19-May-2004                              :LOG DATE {DD-MMM-YYYY}
SRVC .        Schlumberger                             :SERVICE COMPANY
LATI .DEG                                              :LATITUDE
LONG .DEG                                              :LONGITUDE
GDAT .                                                 :GeoDetic Datum
SECT .        28                                       :Section
RANG .        78W                                      :Range
TOWN .        39N                                      :Township
#-----------------------------------------------------------------------------
~PARAMETER INFORMATION
#MNEM.UNIT    VALUE                      DESCRIPTION
#---- -----   --------------------       ------------------------
RUN  .          1                        :RUN NUMBER
PDAT .        GROUND LEVEL               :Permanent Datum
EPD  .C3                                 :Elevation of Permanent Datum above Mean Sea Level
EPD  .C3                                 :Elevation of tool zero above Mean Sea Level
LMF  .          KELLY BUSHING            :Logging Measured From (Name of Logging Elevation Reference)
APD  .                                   :Elevation of Depth Reference (LMF) above Permanent Datum
#-----------------------------------------------------------------------------
~CURVE INFORMATION
#MNEM.UNIT   API CODE                                  DESCRIPTION
#---- -----  --------                                  -----------------------
DEPT .F                                                :DEPTH (BOREHOLE) {F10.1}
BS   .IN                                               :Bit Size {F13.4}
DPHZ .CFCF                                             :HRDD Standard Resolution Density Porosity {F13.4}
FCD  .IN                                               :Future Casing Diameter {F13.4}
GR   .GAPI                                             :Gamma-Ray {F13.4}
HCAL .IN                                               :HRCC Cal. Caliper {F13.4}
HDRA .G/C3                                             :HRDD Density Correction {F13.4}
ICV  .F3                                               :Integrated Cement Volume {F13.4}
NPOR .CFCF                                             :Enhanced Thermal Neutron Porosity {F13.4}
PEFZ .                                                 :HRDD Standard Resolution Formation Photoelectric Factor {F13.4}
RHOZ .G/C3                                             :HRDD Standard Resolution Formation Density {F13.4}
RLA1 .OHMM                                             :HRLT Borehole Corrected Resistivity 1 {F13.4}
RLA2 .OHMM                                             :HRLT Borehole Corrected Resistivity 2 {F13.4}
RLA3 .OHMM                                             :HRLT Borehole Corrected Resistivity 3 {F13.4}
RLA4 .OHMM                                             :HRLT Borehole Corrected Resistivity 4 {F13.4}
RLA5 .OHMM                                             :HRLT Borehole Corrected Resistivity 5 {F13.4}
RXOZ .OHMM                                             :MCFL Standard Resolution Invaded Zone Resistivity {F13.4}
SP   .MV                                               :Spontaneous Potential {F13.4}
#-----------------------------------------------------------------------------
# 
#     DEPT        BS           DPHZ         FCD          GR           HCAL         HDRA         ICV          NPOR         PEFZ         RHOZ         RLA1         RLA2         RLA3         RLA4         RLA5         RXOZ         SP
#
~A  
# ...
    5260.5       6.1250      -0.0999       5.0000      78.9329       6.9552      -0.0044      40.3746       0.1096       4.2491       2.8149      96.8075     114.0901     153.7091     174.3201     155.2316      56.9072      88.3125
    5260.0       6.1250      -0.0456       5.0000      95.8809       6.9328      -0.0075      40.4375       0.1506       3.8341       2.7252      36.3361      42.1913      49.8030      49.4000      47.1826      32.9167      88.7500
    5259.5       6.1250      -0.0216       5.0000      94.8381       6.9552       0.0046      40.5013       0.1284       3.5372       2.6856      32.9582      41.5527      41.5240      39.5307      38.5601      30.0971      88.7500
    5259.0       6.1250      -0.0118       5.0000      97.9009       6.9552       0.0042      40.5650       0.1277       3.4767       2.6694      34.6851      41.3370      38.2557      35.7046      34.2597      26.4606      88.9375
    5258.5       6.1250      -0.0075       5.0000     100.8973       6.9440       0.0032      40.6283       0.1546       3.5151       2.6624      37.6901      39.5326      37.1544      34.9817      33.2432      20.4759      89.3125
    5258.0       6.1250      -0.0136       5.0000     103.3538       6.9328      -0.0073      40.6912       0.1640       3.5786       2.6724      28.7352      31.4358      30.0656      28.4502      26.5103      16.5437      89.5625
    5257.5       6.1250      -0.0436       5.0000      84.0093       6.9440      -0.0023      40.7546       0.1223       3.6439       2.7219      19.7702      22.1140      22.3834      21.8698      20.6614      21.9708      90.0000
    5257.0       6.1250      -0.0840       5.0000      63.8433       6.9552       0.0019      40.8183       0.0739       3.7370       2.7887      20.5175      22.8296      25.5027      23.2808      21.5704      44.0722      90.3125
    5256.5       6.1250      -0.0995       5.0000      53.0438       6.9999       0.0002      40.8837       0.0773       3.8829       2.8142      45.9798      52.8121      63.3511      61.2159      57.3220      81.6178      90.3125
    5256.0       6.1250      -0.0881       5.0000      67.8623       6.9775      -0.0032      40.9483       0.1335       3.9108       2.7954     100.7402     122.1474     144.8871     159.6871     152.4089      37.7742      90.5000
    5255.5       6.1250      -0.0682       5.0000      81.1453       6.9999      -0.0030      41.0138       0.1429       3.8175       2.7626      37.8216      42.5566      48.5717      57.6294      50.1984      24.3053      91.3125
    5255.0       6.1250      -0.0563       5.0000      91.9448       7.0110       0.0008      41.0796       0.1547       3.6406       2.7430      22.2272      24.3237      28.0197      29.5961      27.0395      19.4754      92.1875
    5254.5       6.1250      -0.0456       5.0000      99.8610       6.9999       0.0021      41.1451       0.1664       3.5118       2.7252      20.3440      21.7041      25.4866      24.6489      23.2378      17.2176      92.5000
    5254.0       6.1250      -0.0359       5.0000     101.3307       7.0334       0.0006      41.2118       0.1488       3.4267       2.7093      18.9458      21.1210      22.6831      21.4316      20.6327      16.6227      93.3750
    5253.5       6.1250      -0.0307       5.0000     101.1685       7.0445      -0.0009      41.2789       0.1375       3.3795       2.7006      18.4193      22.1916      21.3908      20.7496      20.1991      18.1749      93.0625
    5253.0       6.1250      -0.0281       5.0000      94.0000       7.0669      -0.0024      41.3470       0.1419       3.3994       2.6964      20.0818      24.5796      23.2761      22.2702      22.3163      19.6642      93.0000
    5252.5       6.1250      -0.0294       5.0000     102.1248       7.0669      -0.0034      41.4150       0.1391       3.4545       2.6985      23.0686      26.6259      26.2996      25.3044      25.5123      19.9569      92.8125
    5252.0       6.1250      -0.0334       5.0000     100.1408       7.1004      -0.0058      41.4843       0.1267       3.6050       2.7051      22.7172      24.6557      25.9979      25.3192      25.7826      18.9309      93.1875
    5251.5       6.1250      -0.0604       5.0000      87.0775       7.1115      -0.0047      41.5540       0.0922       3.8236       2.7497      19.9468      21.3429      23.7329      23.3415      23.9536      24.8395      93.3750
    5251.0       6.1250      -0.1050       5.0000      56.5607       7.1339      -0.0103      41.6246       0.0791       4.1990       2.8232      20.4603      21.6393      24.7826      24.1526      26.1070      45.7030      92.8750
    5250.5       6.1250      -0.1566       5.0000      30.1785       7.1339      -0.0212      41.6952       0.0404       4.5761       2.9084      51.0790      55.4269      64.6832      69.5552      78.0183     268.7380      92.5625
    5250.0       6.1250      -0.1858       5.0000      19.8720       7.1786      -0.0196      41.7676       0.0106       4.7465       2.9566     246.2908     295.7592     342.7883     389.8185     436.3821    2017.9620      92.6875
    5249.5       6.1250      -0.1854       5.0000      31.1999       7.2009      -0.0098      41.8408       0.0153       4.6192       2.9560     482.6862     596.6088     638.5106     697.5051     793.8788     170.0159      92.1875
    5249.0       6.1250      -0.1490       5.0000      51.1435       7.2232       0.0164      41.9149       0.0571       4.2706       2.8958     256.7656     296.9140     306.2760     304.8738     362.1754      59.2140      92.4375
    5248.5       6.1250      -0.0983       5.0000      64.7872       7.2344       0.0128      41.9895       0.1300       4.0090       2.8122     134.5732     135.6719     133.5442     148.1912     173.5754      22.8567      92.4375
    5248.0       6.1250      -0.0622       5.0000      72.9927       7.2902       0.0083      42.0662       0.1455       3.9559       2.7526      47.8755      41.7138      40.2235      42.2373      44.4518      15.9279      92.1250
    5247.5       6.1250      -0.0760       5.0000      62.8522       7.2902      -0.0084      42.1430       0.1126       4.1617       2.7754      20.6325      17.1087      16.1554      15.6716      18.1255      19.6361      92.0000
    5247.0       6.1250      -0.1214       5.0000      44.6776       7.3014      -0.0208      42.2202       0.0689       4.5881       2.8503      20.6717      17.6570      16.4533      15.8685      18.5851      41.7846      92.0000
    5246.5       6.1250      -0.1678       5.0000      23.9575       7.3349      -0.0350      42.2987       0.0330       4.9762       2.9269      59.5831      57.4967      53.6315      47.2604      57.9712     652.2847      92.0000
    5246.0       6.1250      -0.1802       5.0000      28.8314       7.3349      -0.0311      42.3773       0.0046       5.0920       2.9473     484.6191     895.2221     908.1890     881.2228    1059.5082    1615.2661      91.8750
    5245.5       6.1250      -0.1550       5.0000      50.3432       7.3796      -0.0182      42.4576       0.0279       4.8105       2.9058     484.2489     677.9513     715.5137     697.8270     917.7527      63.7796      91.6875
    5245.0       6.1250      -0.1036       5.0000      72.5233       7.4243       0.0012      42.5397       0.1269       4.3237       2.8210      71.1517      80.8029      86.6150      91.0748     120.5497      20.8701      92.0625
    5244.5       6.1250      -0.0500       5.0000      84.5440       7.4243      -0.0006      42.6219       0.2005       3.9119       2.7325      16.5163      15.8813      17.1020      18.3492      24.7175      13.1801      91.7500
    5244.0       6.1250      -0.0234       5.0000      95.2253       7.4690       0.0013      42.7058       0.2042       3.6176       2.6887      11.3059      10.7842      11.3155      11.0063      15.6680      11.9741      92.4375
    5243.5       6.1250      -0.0160       5.0000     100.5771       7.4913      -0.0024      42.7907       0.1889       3.4664       2.6764      11.1520      10.7213      10.8812      10.6913      15.3159      12.7677      92.3750
