~VERSION INFORMATION
VERS.           2.0   :CWLS Log ASCII Standard - VERSION 2.0
WRAP.           NO    :One Line per depth step
PROD.  Schlumberger   :LAS Producer
PROG.  DLIS to ASCII 11C0-305                          :LAS Program name and version
CREA.        2004/05/20 01:33                          :LAS Creation date {YYYY/MM/DD hh:mm}
SOURCE.     AIT_TLD_MCFL_CNL_019PUP.DLIS               :DLIS File Name
FILE-ID.     AIT_TLD_MCFL_CNL_019PUP                   :File Identification Number
#--------------------------------------------------
~WELL INFORMATION
#MNEM.UNIT      DATA             DESCRIPTION
#---- ------ --------------   -----------------------------
STRT .F         5768.0       :START DEPTH     
STOP .F         4226.5       :STOP DEPTH     
STEP .F           -0.5       :STEP     
NULL .          -999.25      :NULL VALUE
COMP .        DEPARTMENT OF ENERGY                     :COMPANY
WELL .        48X - 28                                 :WELL
FLD  .        NAVAL PETROLEUM RESERVE # 3              :FIELD
LOC  .        490' FSL, 2449' FWL                      :LOCATION
CNTY .        NATRONA                                  :COUNTY
STAT .        WYOMING                                  :STATE
CTRY .                                                 :COUNTRY
API  .        49-025-23195                             :API NUMBER
UWI  .                                                 :UNIQUE WELL ID
DATE .        19-May-2004                              :LOG DATE {DD-MMM-YYYY}
SRVC .        Schlumberger                             :SERVICE COMPANY
LATI .DEG                                              :LATITUDE
LONG .DEG                                              :LONGITUDE
GDAT .                                                 :GeoDetic Datum
SECT .        28                                       :Section
RANG .        78W                                      :Range
TOWN .        39N                                      :Township
#-----------------------------------------------------------------------------
~PARAMETER INFORMATION
#MNEM.UNIT    VALUE                      DESCRIPTION
#---- -----   --------------------       ------------------------
RUN  .          1                        :RUN NUMBER
PDAT .        GROUND LEVEL               :Permanent Datum
EPD  .C3                                 :Elevation of Permanent Datum above Mean Sea Level
EPD  .C3                                 :Elevation of tool zero above Mean Sea Level
LMF  .          KELLY BUSHING            :Logging Measured From (Name of Logging Elevation Reference)
APD  .                                   :Elevation of Depth Reference (LMF) above Permanent Datum
#-----------------------------------------------------------------------------
~CURVE INFORMATION
#MNEM.UNIT   API CODE                                  DESCRIPTION
#---- -----  --------                                  -----------------------
DEPT .F                                                :DEPTH (BOREHOLE) {F10.1}
BS   .IN                                               :Bit Size {F13.4}
DPHZ .CFCF                                             :HRDD Standard Resolution Density Porosity {F13.4}
FCD  .IN                                               :Future Casing Diameter {F13.4}
GR   .GAPI                                             :Gamma-Ray {F13.4}
HCAL .IN                                               :HRCC Cal. Caliper {F13.4}
HDRA .G/C3                                             :HRDD Density Correction {F13.4}
ICV  .F3                                               :Integrated Cement Volume {F13.4}
NPOR .CFCF                                             :Enhanced Thermal Neutron Porosity {F13.4}
PEFZ .                                                 :HRDD Standard Resolution Formation Photoelectric Factor {F13.4}
RHOZ .G/C3                                             :HRDD Standard Resolution Formation Density {F13.4}
RLA1 .OHMM                                             :HRLT Borehole Corrected Resistivity 1 {F13.4}
RLA2 .OHMM                                             :HRLT Borehole Corrected Resistivity 2 {F13.4}
RLA3 .OHMM                                             :HRLT Borehole Corrected Resistivity 3 {F13.4}
RLA4 .OHMM                                             :HRLT Borehole Corrected Resistivity 4 {F13.4}
RLA5 .OHMM                                             :HRLT Borehole Corrected Resistivity 5 {F13.4}
RXOZ .OHMM                                             :MCFL Standard Resolution Invaded Zone Resistivity {F13.4}
SP   .MV                                               :Spontaneous Potential {F13.4}
#-----------------------------------------------------------------------------
# 
#     DEPT        BS           DPHZ         FCD          GR           HCAL         HDRA         ICV          NPOR         PEFZ         RHOZ         RLA1         RLA2         RLA3         RLA4         RLA5         RXOZ         SP
#
~A  
# ...
    5050.5       6.1250      -0.0509       5.0000     123.8794       7.4466       0.0073      82.3858       0.1555       3.4164       2.7340      22.1014      20.5827      20.1721      19.4870      19.3669      22.9692      88.0000
    5050.0       6.1250      -0.0535       5.0000     124.4299       7.4466       0.0077      82.4689       0.1429       3.4144       2.7382      21.2627      19.8241      19.4237      18.8315      18.6986      23.7979      88.0625
    5049.5       6.1250      -0.0453       5.0000     119.2595       7.4466       0.0049      82.5519       0.1556       3.4109       2.7248      20.6920      19.2704      18.9671      18.2813      18.1795      23.9488      88.2500
    5049.0       6.1250      -0.0370       5.0000     110.7972       7.4690       0.0023      82.6358       0.1437       3.3944       2.7110      21.9904      20.6134      20.1210      19.3397      19.4113      25.3891      88.1875
    5048.5       6.1250      -0.0322       5.0000      98.7710       7.4690       0.0001      82.7198       0.1306       3.3967       2.7031      24.0503      22.6192      22.1545      21.3134      21.4354      27.2840      88.8750
    5048.0       6.1250      -0.0327       5.0000      97.6841       7.4690      -0.0002      82.8038       0.1346       3.3864       2.7039      25.8005      24.2598      23.9759      23.1061      23.3251      29.0889      88.6250
    5047.5       6.1250      -0.0395       5.0000      98.5184       7.4690       0.0002      82.8877       0.1324       3.3723       2.7152      26.6257      25.0100      24.7940      23.8414      24.1877      28.4617      89.3125
    5047.0       6.1250      -0.0435       5.0000     106.6556       7.4801       0.0003      82.9721       0.1436       3.3490       2.7217      25.8525      24.0655      23.7497      22.9771      23.3487      27.4252      89.2500
    5046.5       6.1250      -0.0449       5.0000     108.3242       7.4913       0.0001      83.0570       0.1432       3.3314       2.7240      25.1754      23.3207      22.9734      22.2537      22.6545      26.3542      89.0625
    5046.0       6.1250      -0.0418       5.0000     106.4611       7.4690       0.0005      83.1409       0.1400       3.3351       2.7189      24.5312      22.5932      22.2261      21.6027      22.0182      26.2529      88.5625
    5045.5       6.1250      -0.0329       5.0000     107.2216       7.4913      -0.0007      83.2258       0.1364       3.4008       2.7043      23.6300      21.6305      21.2852      20.7636      21.1428      26.3589      88.6250
    5045.0       6.1250      -0.0299       5.0000     107.3167       7.4801       0.0004      83.3102       0.1329       3.4335       2.6993      24.9718      22.9014      22.6919      21.9846      22.3246      25.7830      88.6875
    5044.5       6.1250      -0.0328       5.0000     110.2227       7.4690       0.0102      83.3941       0.1433       3.4927       2.7041      25.2709      23.3745      23.0034      22.4175      22.6829      26.2783      88.6250
    5044.0       6.1250      -0.0335       5.0000     108.7469       7.4801       0.0117      83.4786       0.1408       3.5069       2.7053      25.8378      24.1880      24.0066      23.1813      23.4914      25.6486      88.3750
    5043.5       6.1250      -0.0358       5.0000     109.4860       7.4690       0.0141      83.5625       0.1370       3.5501       2.7091      25.7962      24.3086      24.1555      23.3740      23.6258      26.9024      87.8750
    5043.0       6.1250      -0.0364       5.0000     112.3032       7.4801       0.0094      83.6469       0.1439       3.5828       2.7101      24.0959      22.7177      22.4598      21.8378      22.0437      23.6406      87.1875
    5042.5       6.1250      -0.0446       5.0000     118.1592       7.4913       0.0126      83.7318       0.1620       3.5957       2.7236      24.2505      23.0182      22.6680      21.7305      21.9275      21.8158      86.5000
    5042.0       6.1250      -0.0486       5.0000     126.4721       7.4690       0.0122      83.8157       0.1952       3.5804       2.7303      22.4250      21.2983      20.9160      20.1160      20.2677      19.7065      87.1250
    5041.5       6.1250      -0.0409       5.0000     129.4950       7.4913       0.0067      83.9006       0.2105       3.5167       2.7175      17.2728      16.1230      15.6762      15.1847      15.2180      18.6056      87.9375
    5041.0       6.1250      -0.0326       5.0000     130.7931       7.4466       0.0024      83.9836       0.1774       3.4816       2.7038      16.5977      15.4357      15.0600      14.6779      14.6374      18.5055      88.1875
    5040.5       6.1250      -0.0323       5.0000     120.8116       7.4690       0.0041      84.0676       0.1662       3.4447       2.7034      15.8375      14.7795      14.4097      13.8541      13.8846      19.5707      88.3750
    5040.0       6.1250      -0.0400       5.0000     115.6012       7.4466       0.0032      84.1506       0.1578       3.4706       2.7159      18.6592      17.6881      17.2938      16.6683      16.6895      20.7355      88.0000
    5039.5       6.1250      -0.0483       5.0000     105.5430       7.4690      -0.0030      84.2346       0.1431       3.4708       2.7297      20.2870      19.5251      19.0638      18.3323      18.3437      22.6723      87.8125
    5039.0       6.1250      -0.0517       5.0000     113.4688       7.4243      -0.0063      84.3167       0.1414       3.4837       2.7353      21.4190      20.6842      20.3694      19.4683      19.5367      23.8738      87.5625
    5038.5       6.1250      -0.0415       5.0000     112.0793       7.4243      -0.0075      84.3988       0.1458       3.4621       2.7184      23.1315      22.4706      22.3299      21.4432      21.4609      24.6353      87.6875
    5038.0       6.1250      -0.0378       5.0000     113.5527       7.4243      -0.0001      84.4810       0.1598       3.4268       2.7124      22.4923      21.7653      21.7074      21.0185      21.2061      23.0350      88.0000
    5037.5       6.1250      -0.0300       5.0000     111.4670       7.4019      -0.0006      84.5622       0.1759       3.4039       2.6995      20.1537      19.2164      19.2620      18.6287      18.8809      22.6181      88.5000
    5037.0       6.1250      -0.0344       5.0000     111.1890       7.3796       0.0010      84.6425       0.1583       3.3961       2.7067      20.0557      19.1186      18.9099      18.5806      19.0083      22.4002      88.6250
    5036.5       6.1250      -0.0408       5.0000     115.3471       7.3573       0.0030      84.7220       0.1439       3.4073       2.7173      20.2889      19.4595      19.1228      18.7291      19.2137      23.2615      89.0625
    5036.0       6.1250      -0.0421       5.0000     115.2443       7.3796       0.0012      84.8023       0.1478       3.4333       2.7195      20.6378      19.8505      19.3915      18.8798      19.4178      24.0778      88.9375
    5035.5       6.1250      -0.0331       5.0000     121.9136       7.3684      -0.0030      84.8822       0.1602       3.5146       2.7046      21.6196      20.7765      20.3709      19.7878      20.3884      24.2459      88.7500
    5035.0       6.1250      -0.0233       5.0000     123.2402       7.3573      -0.0068      84.9616       0.1684       3.5900       2.6885      20.3607      19.5498      18.9376      18.5072      18.9361      23.6535      87.8750
    5034.5       6.1250      -0.0276       5.0000     120.4230       7.3573       0.0011      85.0411       0.1825       3.6115       2.6956      19.3651      18.4084      18.0417      17.3950      17.9561      23.4900      88.0000
    5034.0       6.1250      -0.0472       5.0000     109.4659       7.3349       0.0208      85.1196       0.1638       3.5766       2.7278      20.1953      19.2570      18.9720      18.2747      18.9093      19.8822      88.5625
    5033.5       6.1250      -0.0622       5.0000     109.8079       7.3349       0.0407      85.1981       0.1454       3.5347       2.7527      22.3739      21.3096      20.9512      20.1800      20.9193      17.9634      88.5000
