~VERSION INFORMATION
VERS.           2.0   :CWLS Log ASCII Standard - VERSION 2.0
WRAP.           NO    :One Line per depth step
PROD.  Schlumberger   :LAS Producer
PROG.  DLIS to ASCII 11C0-305                          :LAS Program name and version
CREA.        2004/05/20 01:33                          :LAS Creation date {YYYY/MM/DD hh:mm}
SOURCE.     AIT_TLD_MCFL_CNL_019PUP.DLIS               :DLIS File Name
FILE-ID.     AIT_TLD_MCFL_CNL_019PUP                   :File Identification Number
#--------------------------------------------------
~WELL INFORMATION
#MNEM.UNIT      DATA             DESCRIPTION
#---- ------ --------------   -----------------------------
STRT .F         5768.0       :START DEPTH     
STOP .F         4226.5       :STOP DEPTH     
STEP .F           -0.5       :STEP     
NULL .          -999.25      :NULL VALUE
COMP .        DEPARTMENT OF ENERGY                     :COMPANY
WELL .        48X - 28                                 :WELL
FLD  .        NAVAL PETROLEUM RESERVE # 3              :FIELD
LOC  .        490' FSL, 2449' FWL                      :LOCATION
CNTY .        NATRONA                                  :COUNTY
STAT .        WYOMING                                  :STATE
CTRY .                                                 :COUNTRY
API  .        49-025-23195                             :API NUMBER
UWI  .                                                 :UNIQUE WELL ID
DATE .        19-May-2004                              :LOG DATE {DD-MMM-YYYY}
SRVC .        Schlumberger                             :SERVICE COMPANY
LATI .DEG                                              :LATITUDE
LONG .DEG                                              :LONGITUDE
GDAT .                                                 :GeoDetic Datum
SECT .        28                                       :Section
RANG .        78W                                      :Range
TOWN .        39N                                      :Township
#-----------------------------------------------------------------------------
~PARAMETER INFORMATION
#MNEM.UNIT    VALUE                      DESCRIPTION
#---- -----   --------------------       ------------------------
RUN  .          1                        :RUN NUMBER
PDAT .        GROUND LEVEL               :Permanent Datum
EPD  .C3                                 :Elevation of Permanent Datum above Mean Sea Level
EPD  .C3                                 :Elevation of tool zero above Mean Sea Level
LMF  .          KELLY BUSHING            :Logging Measured From (Name of Logging Elevation Reference)
APD  .                                   :Elevation of Depth Reference (LMF) above Permanent Datum
#-----------------------------------------------------------------------------
~CURVE INFORMATION
#MNEM.UNIT   API CODE                                  DESCRIPTION
#---- -----  --------                                  -----------------------
DEPT .F                                                :DEPTH (BOREHOLE) {F10.1}
BS   .IN                                               :Bit Size {F13.4}
DPHZ .CFCF                                             :HRDD Standard Resolution Density Porosity {F13.4}
FCD  .IN                                               :Future Casing Diameter {F13.4}
GR   .GAPI                                             :Gamma-Ray {F13.4}
HCAL .IN                                               :HRCC Cal. Caliper {F13.4}
HDRA .G/C3                                             :HRDD Density Correction {F13.4}
ICV  .F3                                               :Integrated Cement Volume {F13.4}
NPOR .CFCF                                             :Enhanced Thermal Neutron Porosity {F13.4}
PEFZ .                                                 :HRDD Standard Resolution Formation Photoelectric Factor {F13.4}
RHOZ .G/C3                                             :HRDD Standard Resolution Formation Density {F13.4}
RLA1 .OHMM                                             :HRLT Borehole Corrected Resistivity 1 {F13.4}
RLA2 .OHMM                                             :HRLT Borehole Corrected Resistivity 2 {F13.4}
RLA3 .OHMM                                             :HRLT Borehole Corrected Resistivity 3 {F13.4}
RLA4 .OHMM                                             :HRLT Borehole Corrected Resistivity 4 {F13.4}
RLA5 .OHMM                                             :HRLT Borehole Corrected Resistivity 5 {F13.4}
RXOZ .OHMM                                             :MCFL Standard Resolution Invaded Zone Resistivity {F13.4}
SP   .MV                                               :Spontaneous Potential {F13.4}
#-----------------------------------------------------------------------------
# 
#     DEPT        BS           DPHZ         FCD          GR           HCAL         HDRA         ICV          NPOR         PEFZ         RHOZ         RLA1         RLA2         RLA3         RLA4         RLA5         RXOZ         SP
#
~A  
# ...
    4245.5       6.1250      -0.7189       5.0000      27.1440       6.3744       1.0159     176.8188       0.1806      10.0000       3.8362       0.0055       0.0050       0.0045       0.0038       0.0120       0.0300      45.6875
    4245.0       6.1250      -0.7149       5.0000      32.8997       6.3744       1.0196     176.8188       0.1764      10.0000       3.8296       0.0065       0.0058       0.0052       0.0044       0.0121       0.0300      47.1250
    4244.5       6.1250      -0.7061       5.0000      40.0869       6.3967       1.0086     176.8188       0.1947      10.0000       3.8151       0.0044       0.0041       0.0036       0.0028       0.0101       0.0300      46.0000
    4244.0       6.1250      -0.6941       5.0000      43.6878       6.3967       1.0000     176.8188       0.1948      10.0000       3.7952       0.0047       0.0043       0.0037       0.0029       0.0102       0.0300      43.1250
    4243.5       6.1250      -0.6836       5.0000      46.6078       6.3744       0.9741     176.8188       0.2095      10.0000       3.7780       0.0037       0.0034       0.0030       0.0022       0.0095       0.0303      40.1250
    4243.0       6.1250      -0.6775       5.0000      41.5886       6.3744       0.9699     176.8188       0.2059      10.0000       3.7679       0.0056       0.0048       0.0042       0.0034       0.0107       0.0303      36.5625
    4242.5       6.1250      -0.6784       5.0000      39.7114       6.3632       0.9662     176.8188       0.1864      10.0000       3.7693       0.0048       0.0043       0.0038       0.0030       0.0106       0.0302      32.2500
    4242.0       6.1250      -0.6817       5.0000      34.0799       6.3744       0.9841     176.8188       0.1808      10.0000       3.7748       0.0037       0.0035       0.0030       0.0023       0.0097       0.0300      30.1250
    4241.5       6.1250      -0.6750       5.0000      35.7606       6.3744       0.9879     176.8188       0.2065      10.0000       3.7637       0.0070       0.0062       0.0056       0.0048       0.0120       0.0300      28.5625
    4241.0       6.1250      -0.6517       5.0000      31.5891       6.3520       0.9710     176.8188       0.2001      10.0000       3.7254       0.0041       0.0039       0.0038       0.0035       0.0096       0.0306      27.8125
    4240.5       6.1250      -0.6217       5.0000      30.4606       6.3744       0.9385     176.8188       0.1970      10.0000       3.6758       0.0049       0.0044       0.0039       0.0029       0.0108       0.0347      27.0625
    4240.0       6.1250      -0.6113       5.0000      29.5319       6.3632       0.9149     176.8188       0.1728      10.0000       3.6586       0.0056       0.0046       0.0040       0.0036       0.0015       0.0382      25.9375
    4239.5       6.1250      -0.6309       5.0000      33.0777       6.3744       0.9226     176.8188       0.1727      10.0000       3.6909       0.0050       0.0042       0.0035       0.0021       0.0168       0.0408      25.3125
    4239.0       6.1250      -0.6636       5.0000      34.4970       6.3520       0.9395     176.8188       0.1682      10.0000       3.7450       0.0037       0.0035       0.0023  100000.0000       0.1504       0.0427      23.9375
    4238.5       6.1250      -0.6865       5.0000      38.6685       6.3744       0.9590     176.8188       0.1864      10.0000       3.7828       0.0046       0.0027       0.0031       0.0054  100000.0000       0.0389      23.2500
    4238.0       6.1250      -0.6759       5.0000      42.1014       6.3520       0.9305     176.8188       0.2080      10.0000       3.7653       0.0047       0.0041       0.0033       0.0019       0.0153       0.0344      22.3750
    4237.5       6.1250      -0.6110       5.0000      47.3421       6.3744       0.8563     176.8188       0.2006      10.0000       3.6582       0.0052       0.0043       0.0040       0.0040  100000.0000       0.0300      21.8750
    4237.0       6.1250      -0.5013       5.0000      47.7743       6.3744       0.7453     176.8188       0.1891      10.0000       3.4771       0.0037       0.0033       0.0027       0.0015       0.0123       0.0308      20.5625
    4236.5       6.1250      -0.4047       5.0000      50.6160       6.3744       0.6695     176.8188       0.1938      10.0000       3.3177  100000.0000  100000.0000  100000.0000  100000.0000       0.0235       0.0323      19.0625
    4236.0       6.1250      -0.3925       5.0000      53.4276       6.3744       0.6668     176.8188       0.2128      10.0000       3.2977       0.0003       0.0003       0.0001  100000.0000       0.0031       0.0323      17.8750
    4235.5       6.1250      -0.4786       5.0000      57.1669       6.3520       0.7319     176.8188       0.1985      10.0000       3.4398       0.0048       0.0040       0.0034       0.0026       0.0077       0.0338      16.8750
    4235.0       6.1250      -0.5975       5.0000      55.2790       6.3744       0.8368     176.8188       0.1708      10.0000       3.6359       0.0064       0.0059       0.0043       0.0016       0.0282       0.0336      17.3125
    4234.5       6.1250      -0.6822       5.0000      52.3589       6.3744       0.9081     176.8188       0.1889      10.0000       3.7756       0.0101       0.0082       0.0070       0.0055       0.0216       0.0333      17.0000
    4234.0       6.1250      -0.7130       5.0000      47.5517       6.3744       0.9384     176.8188       0.2002      10.0000       3.8264       0.0072       0.0076       0.0018  100000.0000       0.0260       0.0305      16.4375
    4233.5       6.1250      -0.7191       5.0000      45.4592       6.3520       0.9390     176.8188       0.2282      10.0000       3.8364  100000.0000  100000.0000  100000.0000  100000.0000       0.2461       0.0300      15.9375
    4233.0       6.1250      -0.7264       5.0000      47.9621       6.3520       0.9433     176.8188       0.2315      10.0000       3.8486       0.0037       0.0032       0.0027       0.0019       0.0076       0.0315      15.0000
    4232.5       6.1250      -0.7318       5.0000      48.6936       6.3520       0.9531     176.8188       0.2206      10.0000       3.8574       0.0035       0.0029       0.0023       0.0013       0.0094       0.0348      14.7500
    4232.0       6.1250      -0.7318       5.0000      47.8593       6.3520       0.9531     176.8188       0.1928      10.0000       3.8574       0.0033       0.0026       0.0020       0.0010       0.0089       0.0370      14.4375
    4231.5       6.1250      -0.7318       5.0000      44.2897       6.3520       0.9531     176.8188       0.1900      10.0000       3.8574       0.0038       0.0031       0.0025       0.0015       0.0093       0.0354      14.0000
    4231.0       6.1250      -0.7318       5.0000      41.0653       6.3520       0.9531     176.8188       0.1708      10.0000       3.8574       0.0038       0.0032       0.0025       0.0015       0.0095       0.0316      14.0625
    4230.5       6.1250      -0.7318       5.0000      42.3068       6.3520       0.9531     176.8188       0.1987      10.0000       3.8574       0.0044       0.0039       0.0036       0.0030       0.0102       0.0302      13.7500
    4230.0       6.1250      -0.7318       5.0000      41.4963       6.3744       0.9531     176.8188       0.1874      10.0000       3.8574       0.0041       0.0034       0.0028       0.0017       0.0101       0.0300      13.9375
    4229.5       6.1250      -0.7318       5.0000      44.7206       6.3520       0.9531     176.8188       0.1610      10.0000       3.8574       0.0045       0.0038       0.0031       0.0020       0.0101       0.0300      13.3750
    4229.0       6.1250      -0.7318       5.0000      43.0621       6.3744       0.9531     176.8188       0.1475      10.0000       3.8574       0.0049       0.0042       0.0035       0.0024       0.0108       0.0300      13.5625
    4228.5       6.1250      -0.7318       5.0000      42.6449       6.3297       0.9531     176.8188       0.1386      10.0000       3.8574       0.0046       0.0038       0.0031       0.0021       0.0103       0.0300      12.9375
