~VERSION INFORMATION
VERS.           2.0   :CWLS Log ASCII Standard - VERSION 2.0
WRAP.           NO    :One Line per depth step
PROD.  Schlumberger   :LAS Producer
PROG.  DLIS to ASCII 11C0-305                          :LAS Program name and version
CREA.        2004/05/20 01:33                          :LAS Creation date {YYYY/MM/DD hh:mm}
SOURCE.     AIT_TLD_MCFL_CNL_019PUP.DLIS               :DLIS File Name
FILE-ID.     AIT_TLD_MCFL_CNL_019PUP                   :File Identification Number
#--------------------------------------------------
~WELL INFORMATION
#MNEM.UNIT      DATA             DESCRIPTION
#---- ------ --------------   -----------------------------
STRT .F         5768.0       :START DEPTH     
STOP .F         4226.5       :STOP DEPTH     
STEP .F           -0.5       :STEP     
NULL .          -999.25      :NULL VALUE
COMP .        DEPARTMENT OF ENERGY                     :COMPANY
WELL .        48X - 28                                 :WELL
FLD  .        NAVAL PETROLEUM RESERVE # 3              :FIELD
LOC  .        490' FSL, 2449' FWL                      :LOCATION
CNTY .        NATRONA                                  :COUNTY
STAT .        WYOMING                                  :STATE
CTRY .                                                 :COUNTRY
API  .        49-025-23195                             :API NUMBER
UWI  .                                                 :UNIQUE WELL ID
DATE .        19-May-2004                              :LOG DATE {DD-MMM-YYYY}
SRVC .        Schlumberger                             :SERVICE COMPANY
LATI .DEG                                              :LATITUDE
LONG .DEG                                              :LONGITUDE
GDAT .                                                 :GeoDetic Datum
SECT .        28                                       :Section
RANG .        78W                                      :Range
TOWN .        39N                                      :Township
#-----------------------------------------------------------------------------
~PARAMETER INFORMATION
#MNEM.UNIT    VALUE                      DESCRIPTION
#---- -----   --------------------       ------------------------
RUN  .          1                        :RUN NUMBER
PDAT .        GROUND LEVEL               :Permanent Datum
EPD  .C3                                 :Elevation of Permanent Datum above Mean Sea Level
EPD  .C3                                 :Elevation of tool zero above Mean Sea Level
LMF  .          KELLY BUSHING            :Logging Measured From (Name of Logging Elevation Reference)
APD  .                                   :Elevation of Depth Reference (LMF) above Permanent Datum
#-----------------------------------------------------------------------------
~CURVE INFORMATION
#MNEM.UNIT   API CODE                                  DESCRIPTION
#---- -----  --------                                  -----------------------
DEPT .F                                                :DEPTH (BOREHOLE) {F10.1}
BS   .IN                                               :Bit Size {F13.4}
DPHZ .CFCF                                             :HRDD Standard Resolution Density Porosity {F13.4}
FCD  .IN                                               :Future Casing Diameter {F13.4}
GR   .GAPI                                             :Gamma-Ray {F13.4}
HCAL .IN                                               :HRCC Cal. Caliper {F13.4}
HDRA .G/C3                                             :HRDD Density Correction {F13.4}
ICV  .F3                                               :Integrated Cement Volume {F13.4}
NPOR .CFCF                                             :Enhanced Thermal Neutron Porosity {F13.4}
PEFZ .                                                 :HRDD Standard Resolution Formation Photoelectric Factor {F13.4}
RHOZ .G/C3                                             :HRDD Standard Resolution Formation Density {F13.4}
RLA1 .OHMM                                             :HRLT Borehole Corrected Resistivity 1 {F13.4}
RLA2 .OHMM                                             :HRLT Borehole Corrected Resistivity 2 {F13.4}
RLA3 .OHMM                                             :HRLT Borehole Corrected Resistivity 3 {F13.4}
RLA4 .OHMM                                             :HRLT Borehole Corrected Resistivity 4 {F13.4}
RLA5 .OHMM                                             :HRLT Borehole Corrected Resistivity 5 {F13.4}
RXOZ .OHMM                                             :MCFL Standard Resolution Invaded Zone Resistivity {F13.4}
SP   .MV                                               :Spontaneous Potential {F13.4}
#-----------------------------------------------------------------------------
# 
#     DEPT        BS           DPHZ         FCD          GR           HCAL         HDRA         ICV          NPOR         PEFZ         RHOZ         RLA1         RLA2         RLA3         RLA4         RLA5         RXOZ         SP
#
~A  
# ...
    5663.0       6.1250       0.0595       5.0000      28.5689       6.1063       0.0021       4.6634       0.0732       2.4449       2.5518      21.3039      23.8264      34.7251      40.3619      47.0191      14.9768     147.8750
    5662.5       6.1250       0.0545       5.0000      23.4820       6.1510       0.0021       4.6984       0.0851       2.6063       2.5601      20.9318      26.1038      37.8116      41.9432      49.7366      13.5053     147.7500
    5662.0       6.1250       0.0642       5.0000      25.5677       6.1510       0.0053       4.7334       0.1354       2.8265       2.5441      20.4157      25.7758      36.7197      42.9837      48.8126       9.6405     147.3125
    5661.5       6.1250       0.0854       5.0000      27.7405       6.1733       0.0290       4.7691       0.2411       3.1948       2.5090      13.3800      21.8566      23.2342      22.8102      25.8819       3.3096     147.3750
    5661.0       6.1250       0.1067       5.0000      25.2097       6.1957       0.0633       4.8056       0.3326       3.6826       2.4740       8.5794      10.4545      11.8630      11.2679      13.5132       2.3031     146.8125
    5660.5       6.1250       0.1337       5.0000      21.0382       8.5859       0.0927       4.9385       0.3152       4.1068       2.4295       3.8937       3.8291       3.7556       3.7521       4.3320       2.1076     146.7500
    5660.0       6.1250       0.1651       5.0000      22.9154       7.8710       0.0959       5.0393       0.3369       4.3197       2.3776       4.1028       3.6819       3.8091       3.8632       4.4234       1.8507     146.9375
    5659.5       6.1250       0.1852       5.0000      32.2006       7.6253       0.0895       5.1296       0.2906       4.3447       2.3444       2.7807       2.9226       2.7996       2.8164       3.2225       1.3028     147.5000
    5659.0       6.1250       0.1876       5.0000      35.9549       7.3796       0.0772       5.2100       0.1207       4.2112       2.3405       4.1603       4.5741       5.0366       5.1049       5.8281       0.8447     148.6875
    5658.5       6.1250       0.1715       5.0000      32.6204       6.6871       0.0581       5.2637       0.0610       3.8475       2.3671      12.6978      18.7148      19.7503      19.9025      23.1599       1.1026     149.1875
    5658.0       6.1250       0.1309       5.0000      27.9517       6.1510       0.0391       5.2987       0.0874       3.2595       2.4341      24.8762      37.0071      41.8148      43.3891      51.6304       1.8136     150.1875
    5657.5       6.1250       0.1003       5.0000      26.7003       6.1063       0.0174       5.3323       0.0913       2.6731       2.4844      15.7369      21.9571      26.1914      29.7380      34.9749       9.4343     150.7500
    5657.0       6.1250       0.0802       5.0000      28.1224       6.0840       0.0070       5.3650       0.0901       2.3183       2.5176      12.4853      16.8954      21.6591      22.9795      28.0287       9.4906     151.3125
    5656.5       6.1250       0.0872       5.0000      26.6624       6.0617      -0.0018       5.3970       0.0853       2.2011       2.5061      14.2168      14.9935      23.5878      25.4502      31.7712       8.4180     151.2500
    5656.0       6.1250       0.0881       5.0000      23.1791       6.0617      -0.0015       5.4291       0.0907       2.1998       2.5046      12.7753      14.0202      16.9789      20.5972      26.1017       8.2270     151.4375
    5655.5       6.1250       0.0904       5.0000      24.8829       6.0617      -0.0017       5.4611       0.0903       2.2227       2.5008      10.3480      11.6275      12.5933      15.9497      20.8565       9.4846     151.4375
    5655.0       6.1250       0.0886       5.0000      23.0057       6.0617      -0.0003       5.4931       0.1020       2.2267       2.5038      10.0140      11.5430      12.1189      15.1631      20.6193      11.2516     150.8750
    5654.5       6.1250       0.0830       5.0000      24.6750       6.0617       0.0025       5.5251       0.0843       2.2401       2.5130      10.9547      12.6519      13.4853      16.5028      23.6269      11.2331     150.8750
    5654.0       6.1250       0.0769       5.0000      22.5892       6.0393       0.0038       5.5564       0.0838       2.2299       2.5231      11.7641      13.4488      14.9008      16.2952      25.2962      11.1817     150.4375
    5653.5       6.1250       0.0769       5.0000      23.4235       6.0393       0.0031       5.5877       0.0950       2.2315       2.5231      13.4629      16.1310      17.6589      18.3341      30.5041       9.5779     151.8125
    5653.0       6.1250       0.0780       5.0000      22.7347       6.0393       0.0016       5.6190       0.1043       2.2184       2.5213      10.5188      12.7979      14.2262      14.6212      25.1346       9.5907     152.8125
    5652.5       6.1250       0.0816       5.0000      21.6874       6.0393       0.0010       5.6503       0.0900       2.2344       2.5154      11.6791      13.8307      15.0023      15.7327      27.2985       8.2400     153.5000
    5652.0       6.1250       0.0836       5.0000      24.6074       6.0170       0.0009       5.6808       0.0875       2.2494       2.5121      15.8665      19.3476      21.6947      23.0767      40.4659       8.9304     152.8125
    5651.5       6.1250       0.0855       5.0000      28.3618       6.0393       0.0022       5.7121       0.0998       2.2701       2.5089      13.6049      16.9560      19.3298      21.1461      36.6142       8.5225     152.1250
    5651.0       6.1250       0.0861       5.0000      34.3306       6.0170       0.0036       5.7427       0.0907       2.2512       2.5080      12.1383      15.3529      17.5253      19.0442      33.2347       8.7361     151.6875
    5650.5       6.1250       0.0866       5.0000      32.6620       6.0393       0.0043       5.7740       0.0908       2.2335       2.5071      13.3015      17.3270      19.9812      22.2134      38.5839       8.4231     151.6250
    5650.0       6.1250       0.0866       5.0000      32.0363       6.0393       0.0039       5.8053       0.0919       2.2086       2.5071      14.5832      18.4516      21.8498      24.2221      41.6442       8.4761     151.6875
    5649.5       6.1250       0.0887       5.0000      29.1746       6.0393       0.0028       5.8365       0.0901       2.1956       2.5037      13.9123      17.4172      21.5026      23.7543      40.5400       8.4770     152.3125
    5649.0       6.1250       0.0972       5.0000      31.8861       6.0393       0.0013       5.8678       0.0840       2.2072       2.4896      13.8595      19.0541      22.9855      25.9959      44.3184       8.2511     153.3125
    5648.5       6.1250       0.1085       5.0000      30.2175       6.0170       0.0002       5.8984       0.1019       2.1899       2.4709      12.7348      17.7070      22.4040      24.6318      39.3716       6.4740     154.5625
    5648.0       6.1250       0.1215       5.0000      28.7778       6.0393       0.0001       5.9297       0.1041       2.1982       2.4496      11.9512      16.2824      20.5184      22.3148      32.0125       5.0737     155.0000
    5647.5       6.1250       0.1278       5.0000      25.6492       6.0281       0.0006       5.9606       0.1148       2.1705       2.4392       9.1504      12.3415      14.7954      15.8782      21.6225       4.1916     155.3750
    5647.0       6.1250       0.1401       5.0000      24.8149       6.0170      -0.0026       5.9911       0.1182       2.1899       2.4189       8.0574      10.9538      12.8258      13.9133      18.6073       4.1261     153.6875
    5646.5       6.1250       0.1380       5.0000      27.4469       6.0393      -0.0027       6.0224       0.1223       2.1657       2.4222       7.9317      10.6607      12.4369      13.4945      17.8630       4.3903     153.5625
    5646.0       6.1250       0.1345       5.0000      29.7413       6.0393      -0.0029       6.0537       0.1125       2.1572       2.4281       8.2644      10.8956      12.6841      13.9588      18.1481       4.5744     153.8750
