~VERSION INFORMATION
VERS.           2.0   :CWLS Log ASCII Standard - VERSION 2.0
WRAP.           NO    :One Line per depth step
PROD.  Schlumberger   :LAS Producer
PROG.  DLIS to ASCII 11C0-305                          :LAS Program name and version
CREA.        2004/05/20 01:33                          :LAS Creation date {YYYY/MM/DD hh:mm}
SOURCE.     AIT_TLD_MCFL_CNL_019PUP.DLIS               :DLIS File Name
FILE-ID.     AIT_TLD_MCFL_CNL_019PUP                   :File Identification Number
#--------------------------------------------------
~WELL INFORMATION
#MNEM.UNIT      DATA             DESCRIPTION
#---- ------ --------------   -----------------------------
STRT .F         5768.0       :START DEPTH     
STOP .F         4226.5       :STOP DEPTH     
STEP .F           -0.5       :STEP     
NULL .          -999.25      :NULL VALUE
COMP .        DEPARTMENT OF ENERGY                     :COMPANY
WELL .        48X - 28                                 :WELL
FLD  .        NAVAL PETROLEUM RESERVE # 3              :FIELD
LOC  .        490' FSL, 2449' FWL                      :LOCATION
CNTY .        NATRONA                                  :COUNTY
STAT .        WYOMING                                  :STATE
CTRY .                                                 :COUNTRY
API  .        49-025-23195                             :API NUMBER
UWI  .                                                 :UNIQUE WELL ID
DATE .        19-May-2004                              :LOG DATE {DD-MMM-YYYY}
SRVC .        Schlumberger                             :SERVICE COMPANY
LATI .DEG                                              :LATITUDE
LONG .DEG                                              :LONGITUDE
GDAT .                                                 :GeoDetic Datum
SECT .        28                                       :Section
RANG .        78W                                      :Range
TOWN .        39N                                      :Township
#-----------------------------------------------------------------------------
~PARAMETER INFORMATION
#MNEM.UNIT    VALUE                      DESCRIPTION
#---- -----   --------------------       ------------------------
RUN  .          1                        :RUN NUMBER
PDAT .        GROUND LEVEL               :Permanent Datum
EPD  .C3                                 :Elevation of Permanent Datum above Mean Sea Level
EPD  .C3                                 :Elevation of tool zero above Mean Sea Level
LMF  .          KELLY BUSHING            :Logging Measured From (Name of Logging Elevation Reference)
APD  .                                   :Elevation of Depth Reference (LMF) above Permanent Datum
#-----------------------------------------------------------------------------
~CURVE INFORMATION
#MNEM.UNIT   API CODE                                  DESCRIPTION
#---- -----  --------                                  -----------------------
DEPT .F                                                :DEPTH (BOREHOLE) {F10.1}
BS   .IN                                               :Bit Size {F13.4}
DPHZ .CFCF                                             :HRDD Standard Resolution Density Porosity {F13.4}
FCD  .IN                                               :Future Casing Diameter {F13.4}
GR   .GAPI                                             :Gamma-Ray {F13.4}
HCAL .IN                                               :HRCC Cal. Caliper {F13.4}
HDRA .G/C3                                             :HRDD Density Correction {F13.4}
ICV  .F3                                               :Integrated Cement Volume {F13.4}
NPOR .CFCF                                             :Enhanced Thermal Neutron Porosity {F13.4}
PEFZ .                                                 :HRDD Standard Resolution Formation Photoelectric Factor {F13.4}
RHOZ .G/C3                                             :HRDD Standard Resolution Formation Density {F13.4}
RLA1 .OHMM                                             :HRLT Borehole Corrected Resistivity 1 {F13.4}
RLA2 .OHMM                                             :HRLT Borehole Corrected Resistivity 2 {F13.4}
RLA3 .OHMM                                             :HRLT Borehole Corrected Resistivity 3 {F13.4}
RLA4 .OHMM                                             :HRLT Borehole Corrected Resistivity 4 {F13.4}
RLA5 .OHMM                                             :HRLT Borehole Corrected Resistivity 5 {F13.4}
RXOZ .OHMM                                             :MCFL Standard Resolution Invaded Zone Resistivity {F13.4}
SP   .MV                                               :Spontaneous Potential {F13.4}
#-----------------------------------------------------------------------------
# 
#     DEPT        BS           DPHZ         FCD          GR           HCAL         HDRA         ICV          NPOR         PEFZ         RHOZ         RLA1         RLA2         RLA3         RLA4         RLA5         RXOZ         SP
#
~A  
# ...
    4350.5       6.1250       0.2054       5.0000      45.2063       7.6365      -0.0011     172.6736       0.2223       2.5494       2.3111       2.7447       2.8225       2.9164       3.0951       4.1452       3.6521     102.5625
    4350.0       6.1250       0.2026       5.0000      42.7834       7.6477       0.0005     172.7649       0.2240       2.5714       2.3157       2.5824       2.6098       2.7920       2.9675       3.9748       3.6569     104.1875
    4349.5       6.1250       0.1978       5.0000      42.0035       7.6477       0.0021     172.8562       0.2009       2.6031       2.3237       2.6304       2.6311       2.8212       3.0090       3.9618       3.7381     104.4375
    4349.0       6.1250       0.1936       5.0000      40.9368       7.6253       0.0030     172.9466       0.1990       2.6031       2.3305       2.6068       2.6894       2.9157       3.0929       4.1500       3.6556     104.9375
    4348.5       6.1250       0.1922       5.0000      36.4767       7.6253       0.0027     173.0370       0.2106       2.5879       2.3328       2.6703       2.7462       2.9509       3.1527       4.1955       3.5417     104.7500
    4348.0       6.1250       0.1941       5.0000      38.6721       7.6253       0.0017     173.1274       0.2162       2.5634       2.3297       2.5294       2.5826       2.8016       2.9864       3.9600       3.5283     104.7500
    4347.5       6.1250       0.2001       5.0000      36.1931       7.6253      -0.0007     173.2178       0.2504       2.5556       2.3198       2.5222       2.5946       2.8131       3.0083       3.9890       3.5733     104.5625
    4347.0       6.1250       0.2054       5.0000      44.0067       7.6477      -0.0031     173.3091       0.2257       2.5358       2.3111       2.5189       2.5859       2.8317       3.0336       4.0074       3.5606     102.1875
    4346.5       6.1250       0.2121       5.0000      42.8542       7.6253      -0.0060     173.3995       0.2537       2.5259       2.3000       2.4912       2.5800       2.7961       2.9878       3.9535       3.4283     102.1875
    4346.0       6.1250       0.2175       5.0000      47.0025       7.6253      -0.0080     173.4899       0.2336       2.5324       2.2911       2.4224       2.5126       2.7018       2.8646       3.7718       3.3531     103.7500
    4345.5       6.1250       0.2251       5.0000      43.3604       7.6477      -0.0099     173.5812       0.2417       2.5606       2.2786       2.3920       2.4873       2.6809       2.8364       3.7303       3.2031     104.1875
    4345.0       6.1250       0.2323       5.0000      44.2747       7.6253      -0.0102     173.6716       0.2510       2.5885       2.2667       2.3104       2.3985       2.5623       2.7107       3.5560       3.0468     105.0000
    4344.5       6.1250       0.2325       5.0000      43.6721       7.6253      -0.0084     173.7620       0.2294       2.5814       2.2665       2.2897       2.3757       2.5398       2.6853       3.5485       3.0022     105.2500
    4344.0       6.1250       0.2346       5.0000      43.2603       7.6253      -0.0081     173.8524       0.2275       2.6024       2.2630       2.3294       2.4042       2.5742       2.7268       3.6027       3.1687     104.3125
    4343.5       6.1250       0.2278       5.0000      40.0517       7.6253      -0.0070     173.9428       0.2332       2.6260       2.2742       2.3756       2.4413       2.6100       2.7508       3.6427       3.3291     103.6250
    4343.0       6.1250       0.2166       5.0000      38.9850       7.6923      -0.0055     174.0360       0.2246       2.6780       2.2927       2.4699       2.5482       2.7283       2.8884       3.8173       3.4900     103.2500
    4342.5       6.1250       0.2038       5.0000      35.8510       7.6477      -0.0040     174.1273       0.2267       2.7330       2.3137       2.4754       2.5590       2.7365       2.9002       3.8504       3.5782     103.2500
    4342.0       6.1250       0.1972       5.0000      36.2011       7.6253      -0.0034     174.2177       0.2253       2.7793       2.3245       2.6194       2.7270       2.9064       3.1005       4.1303       3.6944     105.4375
    4341.5       6.1250       0.1920       5.0000      32.8877       7.6253      -0.0023     174.3081       0.2162       2.7689       2.3332       2.7673       2.8685       3.0798       3.2906       4.3869       3.7224     106.9375
    4341.0       6.1250       0.1900       5.0000      37.8935       7.6253      -0.0013     174.3985       0.2117       2.7570       2.3366       2.7696       2.8529       3.0743       3.2895       4.4096       3.7138     107.7500
    4340.5       6.1250       0.1899       5.0000      36.4747       7.6253      -0.0007     174.4889       0.2259       2.7766       2.3366       2.7809       2.8486       3.0781       3.3030       4.4250       3.6369     108.1250
    4340.0       6.1250       0.1947       5.0000      36.4747       7.6253      -0.0017     174.5793       0.2217       2.8743       2.3288       2.7479       2.8169       2.9868       3.2061       4.2810       3.7352     108.0625
    4339.5       6.1250       0.1838       5.0000      34.3504       7.6253       0.0014     174.6697       0.1878       2.9361       2.3468       2.6781       2.7497       2.9429       3.1536       4.1922       3.8240     107.9375
    4339.0       6.1250       0.1777       5.0000      40.5505       7.6477       0.0022     174.7610       0.1804       2.9446       2.3568       2.9665       3.0647       3.2791       3.5103       4.6640       4.0524     107.0000
    4338.5       6.1250       0.1786       5.0000      44.0963       7.6365       0.0017     174.8518       0.1714       2.8952       2.3553       3.0589       3.1621       3.3782       3.6148       4.7650       3.8997     107.6875
    4338.0       6.1250       0.1878       5.0000      45.3863       7.6253       0.0002     174.9422       0.1848       2.8190       2.3401       2.8479       2.9324       3.1211       3.3378       4.3592       3.6096     108.3125
    4337.5       6.1250       0.1907       5.0000      43.9555       7.6365       0.0009     175.0331       0.2308       2.7531       2.3354       2.5462       2.6323       2.7864       2.9694       3.7589       3.5137     109.3125
    4337.0       6.1250       0.1903       5.0000      43.1212       7.6253       0.0011     175.1235       0.2418       2.7165       2.3360       2.7109       2.7719       2.9731       3.0678       3.3211       3.5644     109.3125
    4336.5       6.1250       0.1909       5.0000      44.2133       7.5806      -0.0002     175.2120       0.2329       2.6808       2.3350       2.7400       2.8377       3.0471       3.1838       2.9295       3.7344     108.7500
    4336.0       6.1250       0.1940       5.0000      41.1385       7.5806      -0.0028     175.3005       0.2117       2.6461       2.3300       2.7153       2.8155       2.9981       3.1309       2.1356       3.7889     108.8125
    4335.5       6.1250       0.1995       5.0000      40.0711       7.5583      -0.0061     175.3882       0.2132       2.6200       2.3209       2.7335       2.8932       3.0806       3.2451       1.3550       3.7743     108.2500
    4335.0       6.1250       0.2021       5.0000      36.6846       7.5360      -0.0079     175.4748       0.2229       2.5985       2.3165       2.6900       2.8025       2.9606       3.1288       1.2649       3.7764     108.6875
    4334.5       6.1250       0.1991       5.0000      39.1875       7.5136      -0.0069     175.5606       0.2278       2.5610       2.3215       2.6292       2.7395       2.9361       3.1163       1.4151       3.5585     109.1250
    4334.0       6.1250       0.1906       5.0000      36.8028       7.5360      -0.0040     175.6473       0.2405       2.5295       2.3356       2.7647       2.8515       3.0664       3.2367       1.2643       3.5248     109.8125
    4333.5       6.1250       0.1832       5.0000      38.6800       7.4243      -0.0034     175.7294       0.2252       2.5471       2.3477       2.5717       2.6557       2.8562       3.0036       1.1554       3.6632     109.7500
